relative time stamp,Walking,Standing,Sitting,Going Upstairs,Going Downstairs,Going In Lift,annotation any activity,yaw,pitch,roll,acc_x,acc_y,acc_z,pressure[pa],altitude[m],temperature[c],sensor Back,stretch left,stretch right,switch left,switch right
2762209,0,0,0,0,0,0,0,-60.27,67.59,21.81,-2.01,4.83,26.1,101023,-8.61,24.5,2,0,58,0,0
2762273,0,0,0,0,0,0,0,-59.54,66.85,22.49,2.03,1.94,24.05,101018,-8.86,24.5,3,0,35,0,0
2762321,0,0,0,0,0,0,0,-57.74,65.52,23.62,-2.06,-0.19,24.22,101030,-9.69,24.5,3,0,15,0,0
2762369,0,0,0,0,0,0,0,-56.63,64.1,24.99,-2.99,5.39,30.08,101023,-8.86,24.5,4,2,39,0,0
2762417,0,0,0,0,0,0,0,-56.37,62.64,26.63,3.49,10.43,25.04,101032,-8.69,24.5,6,0,33,0,0
2762465,0,0,0,0,0,0,0,-55.43,61.13,28.16,1.54,2.52,24.36,101026,-8.44,24.5,3,0,27,0,0
2762513,0,0,0,0,0,0,0,-53.74,59.73,29.44,-1.81,-0.73,21.22,101029,-8.61,24.5,2,0,22,0,0
2762577,0,0,0,0,0,0,0,-52.09,58.41,30.63,-0.99,0.23,21.28,101027,-8.94,24.5,0,0,17,0,0
2762625,0,0,0,0,0,0,0,-50.74,57.52,31.43,0.89,0.63,18.77,101021,-9.11,24.5,0,1,17,0,0
2762673,0,0,0,0,0,0,0,-49.97,57.1,31.76,3.84,0.01,13.87,101029,-8.61,24.5,0,0,52,0,0
2762721,0,0,0,0,0,0,0,-48.83,56.35,32.31,7.32,-1.24,17.6,101023,-8.94,24.5,2,0,108,0,0
2762769,0,0,0,0,0,0,0,-47.27,54.83,33.71,4.04,-1.19,20.33,101021,-8.61,24.6,0,0,95,0,0
2762817,0,0,0,0,0,0,0,-46.29,53.18,35.35,4.87,-2.16,20.65,101023,-8.94,24.6,0,0,91,0,0
2762865,0,0,0,0,0,0,0,-45.55,51.66,36.92,6.15,-0.2,12.84,101029,-8.86,24.6,0,0,85,0,0
2762913,0,0,0,0,0,0,0,-44.86,50.16,38.39,-4.43,2.56,9.78,101017,-8.44,24.6,0,1,74,0,0
2762977,0,0,0,0,0,0,0,-43.84,48.43,39.99,-21.46,-5.46,7.21,101021,-8.28,24.6,1,0,86,0,0
2763025,0,0,0,0,0,0,0,-43.61,46.95,41.7,-26.44,-1.1,19.64,101024,-8.35,24.6,0,0,76,0,0
2763082,0,0,0,0,0,0,0,-44.4,47.08,41.89,-20.01,7.46,23.49,101026,-8.94,24.6,0,0,64,0,0
2763122,0,0,0,0,0,0,0,-45.33,47.64,41.7,-14.43,3.25,19.04,101023,-8.86,24.6,0,0,52,0,0
2763172,0,0,0,0,0,0,0,-46.36,48.53,40.97,-6.78,0.03,13.34,101023,-8.28,24.6,1,0,48,0,0
2763217,0,0,0,0,0,0,0,-47.05,49.55,39.86,-4.6,1.69,10.47,101023,-9.11,24.6,0,0,59,0,0
2763265,0,0,0,0,0,0,0,-47.94,50.67,38.59,-7.22,4.23,5.39,101021,-8.35,24.6,0,1,45,0,0
2763313,0,0,0,0,0,0,0,-49.21,51.79,37.41,5.15,9.42,-2.23,101023,-8.86,24.6,0,2,41,0,0
2763377,0,0,0,0,0,0,0,-49.3,51.14,37.98,23.25,11.94,-7.15,101023,-8.44,24.6,0,0,40,0,0
2763425,0,0,0,0,0,0,0,-49.37,51.05,37.68,29.35,13.51,41.02,101029,-8.86,24.6,0,0,29,1,0
2763473,0,0,0,0,0,0,0,-48.9,50.97,37.24,6.59,-8.38,14.48,101021,-8.94,24.6,1,0,37,0,0
2763521,0,0,0,0,0,0,0,-48.09,50.19,37.89,2.64,-18.14,2.89,101023,-8.61,24.6,2,0,43,0,0
2763570,0,0,0,0,0,0,0,-47.66,49.33,39.06,8.77,-13.8,8.1,101021,-8.69,24.6,0,0,42,0,0
2763617,0,0,0,0,0,0,0,-48.15,49.35,39.41,10.7,-8.25,11.42,101019,-8.44,24.6,9,0,39,0,0
2763666,0,0,0,0,0,0,0,-48.97,49.81,39.04,9.59,-0.64,5.99,101030,-9.19,24.6,3,0,42,0,0
2763713,0,0,0,0,0,0,0,-49.51,50.09,38.54,8.27,5.26,5.32,101024,-8.35,24.6,8,0,45,0,0
2763778,0,0,0,0,0,0,0,-49.95,50.37,38.12,14.43,2.6,1.15,101023,-8.69,24.6,6,1,43,0,0
2763825,0,0,0,0,0,0,0,-50.18,50.39,38.22,13.73,-2.91,4.88,101024,-8.61,24.6,5,0,28,0,0
2763873,0,0,0,0,0,0,0,-50.02,50.04,38.62,9.85,-10.15,6.51,101024,-8.94,24.6,7,0,30,0,0
2763921,0,0,0,0,0,0,0,-49.75,49.47,39.28,10.88,-13.15,9.71,101029,-8.94,24.6,1,1,17,0,0
2763969,0,0,0,0,0,0,0,-49.4,48.81,40.08,9.23,-5.56,15.2,101032,-8.11,24.6,0,0,20,0,0
2764017,0,0,0,0,0,0,0,-49.51,48.76,40.49,7.22,-3.56,10.85,101026,-8.61,24.6,1,0,19,0,0
2764065,0,0,0,0,0,0,0,-49.68,48.79,40.7,4.67,-1.24,4.41,101019,-8.28,24.6,0,0,18,0,0
2764129,0,0,0,0,0,0,0,-50.18,49.12,40.46,6.42,5.11,0.99,101024,-8.52,24.6,0,4,19,0,0
2764177,0,0,0,0,0,0,0,-50.85,49.5,40.02,3.59,8.41,5.49,101030,-8.86,24.6,0,4,14,0,0
2764225,0,0,0,0,0,0,0,-51.56,49.89,39.44,-3.42,0,5.55,101019,-8.52,24.6,0,4,14,0,0
2764273,0,0,0,0,0,0,0,-52.22,50.03,38.97,-6.09,-6.77,7.8,101022,-8.28,24.6,60,0,15,0,0
2764321,0,0,0,0,0,0,0,-53.21,50.86,37.94,-0.04,2.08,10.78,101023,-8.69,24.6,70,2,17,0,0
2764369,0,0,0,0,0,0,0,-54.81,52.75,36.04,4.78,5.25,9.1,101020,-8.02,24.6,1,0,16,0,0
2764417,0,0,0,0,0,0,0,-55.93,53.88,34.79,-2.37,-4.37,3.68,101019,-8.35,24.6,99,2,21,0,0
2764465,0,0,0,0,0,0,0,-56.94,54.49,33.83,-0.66,-9.11,12.66,101024,-8.28,24.6,164,0,23,0,0
2764532,0,0,0,0,0,0,0,-57.37,54.56,33.56,-0.75,-5.04,10.6,101013,-8.69,24.6,161,1,27,0,0
2764577,0,0,0,0,0,0,0,-57.43,54.65,33.47,2.67,-6.19,9.77,101024,-8.69,24.6,204,2,24,0,0
2764625,0,0,0,0,0,0,0,-57.05,53.81,33.98,7.76,-6.9,4.24,101024,-9.36,24.6,227,0,39,0,0
2764673,0,0,0,0,0,0,0,-56.62,52.68,34.64,10.57,-4.65,6.37,101016,-8.28,24.6,219,0,35,0,0
2764721,0,0,0,0,0,0,0,-56.4,51.92,34.89,10.44,-4.29,5.45,101022,-8.28,24.6,205,0,45,0,0
2764769,0,0,0,0,0,0,0,-56.43,51.49,34.9,9.67,-4.59,5.8,101027,-8.86,24.6,104,0,35,0,0
2764817,0,0,0,0,0,0,0,-56.55,51.14,34.85,7.75,-5.87,4.93,101027,-8.94,24.6,71,2,33,0,0
2764865,0,0,0,0,0,0,0,-56.54,50.78,34.91,4.99,-6.9,8.49,101020,-8.52,24.6,166,3,38,0,0
2764929,0,0,0,0,0,0,0,-56.81,51.02,34.49,5.31,-5.34,7.3,101027,-8.61,24.6,204,0,43,0,0
2764977,0,0,0,0,0,0,0,-57.55,51.78,33.83,7.24,-1.69,2.56,101026,-8.61,24.6,175,1,39,0,0
2765025,0,0,0,0,0,0,0,-58.46,52.49,33.23,6.52,-0.96,5.22,101013,-7.6,24.6,181,2,34,0,0
2765073,0,0,0,0,0,0,0,-59.01,53.02,32.7,2.32,-3.99,8.26,101014,-8.02,24.6,148,0,35,0,0
2765121,0,0,0,0,0,0,0,-59.13,53.33,32.63,4.29,-0.34,4.03,101030,-8.28,24.6,94,0,32,0,0
2765169,0,0,0,0,0,0,0,-59.4,53.57,32.5,5.79,2.78,7.12,101017,-8.35,24.6,25,1,40,0,0
2765217,0,0,0,0,0,0,0,-59.55,53.71,32.38,5.06,-1.43,5.7,101014,-8.02,24.6,0,0,36,0,0
2765265,0,0,0,0,0,0,0,-59.28,53.57,32.68,4.84,-2.98,5.94,101014,-8.11,24.6,0,0,35,0,0
2765329,0,0,0,0,0,0,0,-59.22,53.76,32.79,6.66,-1.46,2.64,101013,-8.02,24.6,0,0,25,0,0
2765377,0,0,0,0,0,0,0,-59.57,53.94,33.08,0,1.61,4.81,101020,-8.35,24.6,0,0,23,0,0
2765425,0,0,0,0,0,0,0,-60.33,54.12,33.06,-2.66,3.78,0.35,101023,-8.69,24.6,0,0,24,0,0
2765473,0,0,0,0,0,0,0,-60.07,53.66,33.74,-8.88,6.85,-11.22,101019,-8.35,24.6,0,0,21,0,0
2765521,0,0,0,0,0,0,0,-58.07,51.34,36.05,2.92,-10.07,-6.02,101033,-9.11,24.6,0,0,19,0,0
2765572,0,0,0,0,0,0,0,-55.76,49.61,38.22,25.09,-15.15,27.39,101017,-8.35,24.6,0,0,21,0,0
2765617,0,0,0,0,0,0,0,-56.51,49.74,37.57,21.01,-19.4,29.73,101016,-8.28,24.6,0,0,18,0,0
2765681,0,0,0,0,0,0,0,-55.77,49.7,37.89,12.16,-4.72,1.44,101020,-8.11,24.6,0,0,24,0,0
2765730,0,0,0,0,0,0,0,-55.94,49.53,37.8,8.6,-4.34,3.2,101013,-7.52,24.6,0,2,35,0,0
2765777,0,0,0,0,0,0,0,-56.02,49.54,37.73,7.19,-4.93,3.82,101013,-7.85,24.6,0,0,36,0,0
2765825,0,0,0,0,0,0,0,-55.88,49.43,37.86,6.34,-6.23,4.19,101019,-8.61,24.6,0,0,37,0,0
2765873,0,0,0,0,0,0,0,-55.32,48.89,38.25,10.83,-2.82,5.31,101022,-8.11,24.6,0,0,27,0,0
2765922,0,0,0,0,0,0,0,-55.15,48.38,38.53,10.01,-4.19,6.21,101013,-7.6,24.6,0,0,36,0,0
2765970,0,0,0,0,0,0,0,-54.59,47.97,39.19,5.96,-5.36,9.21,101019,-8.28,24.6,2,0,24,0,0
2766017,0,0,0,0,0,0,0,-53.55,47.77,40.01,12.21,-2.57,5.75,101020,-7.85,24.6,0,0,22,0,0
2766081,0,0,0,0,0,0,0,-52.18,47.45,41.01,8.95,4.33,4.24,101020,-8.35,24.6,0,0,14,0,0
2766129,0,0,0,0,0,0,0,-52.43,48.34,40.52,3.03,17.21,-8.29,101011,-8.02,24.6,0,0,13,0,0
2766177,0,0,0,0,0,0,0,-51.32,47.87,41.63,27.81,32.61,2.13,101019,-8.02,24.6,0,0,15,0,0
2766225,0,0,0,0,0,0,0,-49.34,46.55,43.14,14.57,-16.68,5.39,101016,-7.77,24.6,0,0,31,0,0
2766273,0,0,0,0,0,0,0,-50.2,46.04,43.26,1.18,-26.38,5.51,101016,-7.85,24.6,0,0,97,0,0
2766321,0,0,0,0,0,0,0,-51.9,46.29,42.18,-13.54,-34.51,-6.44,101013,-8.02,24.6,0,0,81,0,0
2766369,0,0,0,0,0,0,0,-53.78,48.14,39.65,-21.03,-26.19,-6.89,101014,-7.6,24.6,0,0,79,0,0
2766417,0,0,0,0,0,0,0,-56.67,51.55,35.75,-9.37,-15.97,4.84,101011,-8.02,24.6,2,0,55,0,0
2766483,0,0,0,0,0,0,0,-58.89,52.48,33.12,35.68,-2.09,23.09,101017,-7.85,24.6,0,0,28,0,0
2766529,0,0,0,0,0,0,0,-58.06,51.46,34.58,3.2,-3.04,7.92,101019,-8.11,24.6,0,0,20,0,0
2766577,0,0,0,0,0,0,0,-59.12,51.3,34.37,2.58,6.33,4.34,101013,-7.85,24.6,0,0,29,0,0
2766625,0,0,0,0,0,0,0,-59.25,51.49,34.16,2.35,2.88,8.54,101013,-8.28,24.6,0,0,32,0,0
2766673,0,0,0,0,0,0,0,-58.69,51.41,34.48,5.67,-3.13,6.4,101019,-8.02,24.6,0,4,43,0,0
2766721,0,0,0,0,0,0,0,-58.51,51.48,34.91,2.92,-2.38,3.24,101017,-7.77,24.6,2,0,42,0,0
2766769,0,0,0,0,0,0,0,-59.65,51.81,34.14,5.74,-7.3,2.77,101022,-8.28,24.6,0,0,34,0,0
2766833,0,0,0,0,0,0,0,-59.21,50.84,35.24,18.19,-2.35,4.18,101025,-8.28,24.6,0,0,38,0,0
2766883,0,0,0,0,0,0,0,-57.29,49.58,37.74,11.93,6.4,3.38,101016,-7.6,24.6,0,0,25,0,0
2766930,0,0,0,0,0,0,0,-57.28,48.89,37.91,7.24,-2.04,2.97,101019,-8.28,24.6,1,0,32,0,0
2766977,0,0,0,0,0,0,0,-57.57,48.9,36.72,8.08,-1.91,0.72,101023,-8.11,24.6,0,0,33,0,0
2767025,0,0,0,0,0,0,0,-58.03,48.73,35.48,7.91,-6.8,3.49,101019,-8.77,24.6,0,0,31,0,0
2767073,0,0,0,0,0,0,0,-57.53,47.4,36.57,11.46,-5.46,5.9,101016,-8.02,24.6,0,0,38,0,0
2767121,0,0,0,0,0,0,0,-56.9,45.91,38.19,8.37,-1.29,3.08,101022,-8.02,24.6,1,0,38,0,0
2767169,0,0,0,0,0,0,0,-56.52,45.64,38.85,8.26,1.97,5.08,101026,-8.11,24.6,2,0,26,0,0
2767233,0,0,0,0,0,0,0,-55.18,45.03,40.94,6.12,-4.93,11.2,101023,-8.52,24.6,0,0,30,0,0
2767281,0,0,0,0,0,0,0,-53.6,44.42,42.88,4.93,-3.68,6.8,101019,-8.28,24.6,0,1,27,0,0
2767329,0,0,0,0,0,0,0,-53.75,44.79,42.99,2.95,-3.19,5.82,101023,-8.35,24.6,0,0,27,0,0
2767377,0,0,0,0,0,0,0,-54.85,45.91,42,4.84,-3.01,8.2,101022,-8.61,24.6,0,2,26,0,0
2767425,0,0,0,0,0,0,0,-56.22,47.36,40.59,4.99,-1.6,0.63,101022,-8.35,24.6,4,2,22,0,0
2767473,0,0,0,0,0,0,0,-57.46,47.72,39.94,3.52,-1.14,5.54,101027,-8.35,24.6,2,0,24,0,0
2767521,0,0,0,0,0,0,0,-57.74,48.11,39.5,3.24,-1.44,6.16,101020,-8.52,24.6,0,2,40,0,0
2767570,0,0,0,0,0,0,0,-57.72,48.99,38.93,3.75,-6.54,5.25,101022,-8.11,24.6,0,0,36,0,0
2767634,0,0,0,0,0,0,0,-59.01,50.51,37.31,10.36,-7.05,2.94,101022,-8.28,24.6,0,0,44,0,0
2767680,0,0,0,0,0,0,0,-59.36,50.91,36.86,8.65,-6.74,5.26,101017,-9.11,24.6,0,2,25,0,0
2767731,0,0,0,0,0,0,0,-59.92,51.28,36.4,8.63,-4.48,2.27,101023,-8.94,24.6,0,0,32,0,0
2767777,0,0,0,0,0,0,0,-60.25,51.52,36.07,7.09,-2.81,3.94,101027,-8.35,24.6,0,0,40,0,0
2767825,0,0,0,0,0,0,0,-60.54,51.91,35.62,5.44,-6.38,3.48,101023,-8.61,24.6,0,2,37,0,0
2767873,0,0,0,0,0,0,0,-60.74,52.05,35.34,3.99,-5.3,6,101023,-8.86,24.6,0,2,33,0,0
2767921,0,0,0,0,0,0,0,-60.7,51.97,35.09,4.04,-3.82,3.37,101023,-8.86,24.6,0,4,43,0,0
2767971,0,0,0,0,0,0,0,-60.6,51.8,35.03,3.8,-4.62,2.23,101020,-8.11,24.6,0,0,31,0,0
2768033,0,0,0,0,0,0,0,-60.23,51.59,35.35,6.9,-5.52,1.59,101017,-8.11,24.6,0,0,37,0,0
2768082,0,0,0,0,0,0,0,-59.76,51.58,35.71,11.07,-3.24,0.62,101023,-8.61,24.6,4,0,32,0,0
2768129,0,0,0,0,0,0,0,-59.31,51.5,36.13,8.07,-1.36,2.01,101027,-8.61,24.6,0,0,23,0,0
2768177,0,0,0,0,0,0,0,-59.21,51.49,36.35,4.28,-2.86,2.51,101020,-8.61,24.6,1,2,33,0,0
2768225,0,0,0,0,0,0,0,-59.34,51.63,36.31,5.3,-1.8,1.93,101025,-8.77,24.6,1,1,27,0,0
2768272,0,0,0,0,0,0,0,-59.43,51.79,36.2,6.85,-1.66,2.78,101026,-8.94,24.6,0,0,37,0,0
2768321,0,0,0,0,0,0,0,-59.32,51.73,36.33,4.19,-1.9,2.94,101016,-7.6,24.6,0,0,32,0,0
2768385,0,0,0,0,0,0,0,-59.19,51.6,36.52,4.37,-1.14,3.27,101025,-7.85,24.6,0,0,31,0,0
2768433,0,0,0,0,0,0,0,-58.95,51.65,36.63,4.47,-2.57,4.04,101016,-8.52,24.6,1,1,28,0,0
2768481,0,0,0,0,0,0,0,-58.51,51.61,36.9,4.48,-2.45,4.82,101020,-8.77,24.6,4,1,37,0,0
2768528,0,0,0,0,0,0,0,-58.18,51.46,37.17,4.3,-2.74,5.36,101023,-8.35,24.6,0,1,19,0,0
2768577,0,0,0,0,0,0,0,-58.19,51.43,37.21,6.6,-5.17,4.29,101026,-8.77,24.6,0,2,26,0,0
2768625,0,0,0,0,0,0,0,-58.11,51.23,37.42,5.7,-5.17,3.36,101025,-8.61,24.6,0,4,23,0,0
2768673,0,0,0,0,0,0,0,-58.09,50.7,37.84,-2.74,-7.77,3.07,101022,-8.77,24.6,0,2,19,0,0
2768720,0,0,0,0,0,0,0,-58.59,50.37,37.92,5.04,-3.02,5.68,101017,-8.02,24.6,0,2,17,0,0
2768785,0,0,0,0,0,0,0,-57.96,49.91,38.58,8.5,4.98,-3.61,101022,-7.85,24.6,0,1,15,0,0
2768833,0,0,0,0,0,0,0,-57.89,50.5,38.2,16.38,-5.9,4.87,101023,-8.77,24.6,0,2,19,0,0
2768881,0,0,0,0,0,0,0,-58.72,50.99,37.43,7.91,-11.64,-2.99,101027,-8.86,24.6,0,0,18,0,0
2768929,0,0,0,0,0,0,0,-60.27,51.27,36.53,8.45,-7.94,1.27,101022,-8.61,24.6,0,4,22,0,0
2768977,0,0,0,0,0,0,0,-61.25,51.3,36.08,6.61,-8.21,0.33,101023,-8.86,24.7,0,0,23,0,0
2769025,0,0,0,0,0,0,0,-61.49,51.1,36.29,5.03,-5.31,1.84,101025,-8.86,24.7,0,0,27,0,0
2769073,0,0,0,0,0,0,0,-61.21,51.01,36.63,3.95,-1.67,3.71,101027,-8.52,24.6,0,0,27,0,0
2769121,0,0,0,0,0,0,0,-61.11,50.99,36.72,3.58,-0.88,3.79,101026,-8.52,24.7,0,0,26,0,0
2769185,0,0,0,0,0,0,0,-61.05,50.98,36.72,3.97,-0.38,3.87,101023,-8.61,24.6,0,1,22,0,0
2769233,0,0,0,0,0,0,0,-60.95,51,36.68,3.92,-1.91,4.68,101023,-8.77,24.7,0,2,22,0,0
2769282,0,0,0,0,0,0,0,-60.69,50.99,36.71,5.14,-4.08,3.57,101025,-8.61,24.7,1,0,23,0,0
2769329,0,0,0,0,0,0,0,-60.25,51.09,36.8,4.5,-5.37,2.59,101017,-8.35,24.7,0,0,25,0,0
2769377,0,0,0,0,0,0,0,-59.65,51.06,37.12,5.51,-4.02,3.71,101025,-8.77,24.7,0,0,24,0,0
2769426,0,0,0,0,0,0,0,-58.68,50.93,37.62,6.1,-2.5,3.12,101014,-8.35,24.6,0,0,24,0,0
2769473,0,0,0,0,0,0,0,-57.55,50.75,38.12,6.13,-2.92,3.89,101016,-8.28,24.7,0,0,24,0,0
2769521,0,0,0,0,0,0,0,-56.94,50.73,38.3,5.88,-2.96,2.14,101022,-8.11,24.7,0,2,21,0,0
2769585,0,0,0,0,0,0,0,-56.92,50.97,38.1,4.51,-1.46,1.34,101023,-8.86,24.7,0,2,27,0,0
2769633,0,0,0,0,0,0,0,-57.74,51.4,37.46,4.5,-1,0.97,101019,-8.28,24.7,0,0,30,0,0
2769681,0,0,0,0,0,0,0,-58.93,51.77,36.64,4.23,-2.44,1.9,101014,-8.86,24.7,0,0,31,0,0
2769730,0,0,0,0,0,0,0,-59.8,51.87,36.02,5.08,-1.6,1.46,101023,-8.28,24.6,0,4,35,0,0
2769776,0,0,0,0,0,0,0,-60.74,51.93,35.25,5.37,0.61,-0.64,101019,-8.52,24.7,0,0,30,0,0
2769824,0,0,0,0,0,0,0,-61.55,52.04,34.38,5.99,-1.57,0.28,101022,-8.52,24.7,0,0,34,0,0
2769873,0,0,0,0,0,0,0,-62.04,52.19,33.86,5.62,-4.05,1.44,101020,-8.52,24.7,0,0,33,0,0
2769937,0,0,0,0,0,0,0,-62.17,52.4,33.64,6.08,-5.11,0.56,101022,-8.02,24.7,0,0,26,0,0
2769985,0,0,0,0,0,0,0,-62.29,52.75,33.42,7.4,-4.34,-0.4,101023,-8.77,24.7,0,1,32,0,0
2770033,0,0,0,0,0,0,0,-62.22,52.54,33.73,5.21,1.1,3.79,101026,-8.94,24.7,0,1,25,0,0
2770081,0,0,0,0,0,0,0,-62.3,52.29,33.83,5.44,-1.55,1.83,101026,-8.77,24.7,0,0,20,0,0
2770129,0,0,0,0,0,0,0,-62.35,52.3,33.87,5.92,-1.73,2.35,101025,-8.11,24.7,0,0,17,0,0
2770177,0,0,0,0,0,0,0,-62.49,52.32,33.91,5.25,-2.02,2.49,101022,-8.61,24.7,0,2,21,0,0
2770225,0,0,0,0,0,0,0,-62.69,52.24,33.93,5.06,-2.23,3.57,101017,-8.28,24.7,0,1,21,0,0
2770273,0,0,0,0,0,0,0,-62.85,52.23,33.94,4.45,-1.57,3.97,101014,-8.02,24.7,0,2,22,0,0
2770336,0,0,0,0,0,0,0,-62.84,52.25,34.01,3.76,0.62,3.26,101014,-7.85,24.7,0,0,19,0,0
2770385,0,0,0,0,0,0,0,-62.81,52.27,34.01,3.7,1.16,3.01,101013,-8.28,24.7,0,0,26,0,0
2770433,0,0,0,0,0,0,0,-62.78,52.34,33.96,4.22,0.5,3.8,101019,-8.28,24.7,0,0,27,0,0
2770483,0,0,0,0,0,0,0,-62.83,52.54,33.77,5.72,-1.63,3.7,101019,-8.02,24.7,0,0,31,0,0
2770528,0,0,0,0,0,0,0,-62.86,52.7,33.63,5.56,-2.29,3.63,101023,-8.52,24.7,0,0,27,0,0
2770576,0,0,0,0,0,0,0,-62.77,52.67,33.67,5.08,-2.22,3.62,101025,-8.35,24.7,0,0,32,0,0
2770624,0,0,0,0,0,0,0,-62.63,52.6,33.78,4.88,-1.45,3.75,101017,-8.86,24.7,0,2,28,0,0
2770672,0,0,0,0,0,0,0,-62.6,52.65,33.77,5.68,-1.03,4.07,101014,-7.77,24.7,0,1,29,0,0
2770737,0,0,0,0,0,0,0,-62.7,52.61,33.74,6.18,-2.31,3.67,101019,-8.28,24.7,0,0,32,0,0
2770789,0,1,0,0,0,0,0,-62.71,52.47,33.84,5.8,-3.03,3.47,101023,-7.85,24.7,0,0,23,0,0
2770833,0,1,0,0,0,0,0,-62.66,52.29,34.04,5.17,-2.34,3.49,101014,-8.11,24.7,0,0,38,0,0
2770880,0,1,0,0,0,0,0,-62.59,52.11,34.23,5.04,-1.24,2.95,101019,-8.11,24.7,0,0,34,0,0
2770929,0,1,0,0,0,0,0,-62.6,52.03,34.31,5.71,-1.32,2.37,101020,-8.02,24.7,0,1,28,0,0
2770979,0,1,0,0,0,0,0,-62.66,51.96,34.37,5.25,-2.03,3.13,101017,-8.28,24.7,0,2,26,0,0
2771024,0,1,0,0,0,0,0,-62.64,51.8,34.51,4.96,-1.98,3.64,101028,-9.03,24.7,0,4,31,0,0
2771073,0,1,0,0,0,0,0,-62.51,51.6,34.71,5.59,-1.51,2.74,101026,-8.77,24.7,0,1,29,0,0
2771136,0,1,0,0,0,0,0,-62.46,51.49,34.82,5.8,-1.65,2.6,101017,-8.77,24.7,0,0,32,0,0
2771185,0,1,0,0,0,0,0,-62.48,51.44,34.87,5.49,-1.64,3.01,101023,-8.28,24.7,0,0,31,0,0
2771232,0,1,0,0,0,0,0,-62.5,51.4,34.91,5.6,-1.73,3.17,101022,-8.86,24.7,0,0,32,0,0
2771280,0,1,0,0,0,0,0,-62.53,51.36,34.93,6,-1.94,2.75,101016,-7.77,24.7,0,0,36,0,0
2771329,0,1,0,0,0,0,0,-62.57,51.32,34.95,5.98,-1.97,2.96,101020,-8.02,24.7,0,1,33,0,0
2771376,0,1,0,0,0,0,0,-62.62,51.29,34.97,5.64,-1.74,2.94,101022,-8.35,24.7,0,0,24,0,0
2771424,0,1,0,0,0,0,0,-62.68,51.28,34.97,5.96,-2.03,2.77,101022,-7.77,24.7,0,0,38,0,0
2771488,0,1,0,0,0,0,0,-62.77,51.29,34.95,6.22,-2.42,2.78,101022,-8.77,24.7,0,0,34,0,0
2771537,0,1,0,0,0,0,0,-62.85,51.29,34.95,6.05,-2.31,2.65,101032,-9.11,24.7,0,0,17,0,0
2771584,0,1,0,0,0,0,0,-62.94,51.32,34.93,6.05,-2.58,2.72,101017,-8.11,24.7,0,1,13,0,0
2771632,0,1,0,0,0,0,0,-62.99,51.33,34.94,6,-2.44,3.04,101016,-8.11,24.7,0,0,24,0,0
2771680,0,1,0,0,0,0,0,-63.04,51.34,34.95,6.01,-2.54,3.4,101023,-7.77,24.7,0,0,28,0,0
2771728,0,1,0,0,0,0,0,-63.06,51.34,34.99,5.81,-2.81,3.24,101022,-8.52,24.7,0,0,20,0,0
2771776,0,1,0,0,0,0,0,-63.11,51.36,35,6.11,-2.81,3.41,101022,-8.28,24.7,0,0,24,0,0
2771824,0,1,0,0,0,0,0,-63.15,51.36,35.02,6.48,-2.6,3.3,101013,-7.85,24.7,0,0,22,0,0
2771889,0,1,0,0,0,0,0,-63.22,51.36,35.02,6.55,-3.13,3.3,101019,-8.11,24.7,1,0,23,0,0
2771939,0,1,0,0,0,0,0,-63.29,51.33,35.04,6.51,-3.54,3.09,101019,-8.11,24.7,2,0,22,0,0
2771984,0,1,0,0,0,0,0,-63.38,51.31,35.06,5.99,-2.72,3.3,101017,-8.28,24.7,0,2,22,0,0
2772032,0,1,0,0,0,0,0,-63.46,51.29,35.07,6.27,-2.64,3.26,101022,-8.28,24.7,0,0,20,0,0
2772081,0,1,0,0,0,0,0,-63.54,51.24,35.1,6.31,-2.6,3.41,101012,-7.77,24.7,0,0,18,0,0
2772128,0,1,0,0,0,0,0,-63.6,51.19,35.13,6.23,-2.58,3.27,101019,-7.77,24.7,0,1,19,0,0
2772177,0,1,0,0,0,0,0,-63.68,51.14,35.16,6.36,-2.85,3.04,101009,-8.11,24.7,0,0,15,0,0
2772224,0,1,0,0,0,0,0,-63.77,51.12,35.17,6.39,-2.93,3.12,101017,-8.52,24.7,0,3,16,0,0
2772288,0,1,0,0,0,0,0,-63.86,51.12,35.17,6.34,-2.95,3.2,101019,-9.19,24.7,0,0,15,0,0
2772336,0,1,0,0,0,0,0,-63.94,51.07,35.2,6.34,-2.78,3.09,101022,-8.52,24.7,0,0,19,0,0
2772384,0,1,0,0,0,0,0,-64.01,51.02,35.23,6.16,-2.93,3.18,101016,-8.52,24.7,0,0,22,0,0
2772432,0,1,0,0,0,0,0,-64.09,50.97,35.27,6.22,-2.59,3.35,101016,-8.61,24.7,0,0,23,0,0
2772480,0,1,0,0,0,0,0,-64.14,50.93,35.31,6.17,-2.64,3.29,101014,-8.02,24.7,0,2,27,0,0
2772528,0,1,0,0,0,0,0,-64.2,50.91,35.32,6.5,-2.85,3.12,101016,-7.77,24.7,0,0,28,0,0
2772577,0,1,0,0,0,0,0,-64.3,50.93,35.3,6.93,-3.58,3.07,101010,-8.11,24.7,0,2,27,0,0
2772625,0,1,0,0,0,0,0,-64.38,50.91,35.34,6.63,-3.17,3.02,101020,-8.77,24.7,0,0,30,0,0
2772688,0,1,0,0,0,0,0,-64.46,50.86,35.39,6.69,-3.42,2.9,101019,-8.02,24.7,0,1,31,0,0
2772736,0,1,0,0,0,0,0,-64.51,50.8,35.48,6.91,-3.48,3.02,101019,-8.28,24.7,0,2,28,0,0
2772785,0,1,0,0,0,0,0,-64.53,50.7,35.62,6.53,-3.41,3.18,101016,-8.28,24.7,0,1,30,0,0
2772833,0,1,0,0,0,0,0,-64.55,50.58,35.76,6.65,-3.24,3.2,101026,-8.77,24.7,0,2,31,0,0
2772882,0,1,0,0,0,0,0,-64.57,50.46,35.91,6.52,-2.98,3.23,101022,-7.77,24.7,0,2,32,0,0
2772928,0,1,0,0,0,0,0,-64.62,50.35,36.02,6.5,-3.18,3.5,101014,-7.77,24.7,0,1,24,0,0
2772976,0,1,0,0,0,0,0,-64.65,50.25,36.13,6.48,-3.48,3.6,101017,-8.28,24.7,0,2,31,0,0
2773041,0,1,0,0,0,0,0,-64.64,50.14,36.26,6.56,-3.29,3.44,101017,-7.77,24.7,0,0,26,0,0
2773088,0,1,0,0,0,0,0,-64.66,50.04,36.38,6.56,-3.15,3.56,101019,-8.28,24.7,0,0,21,0,0
2773136,0,1,0,0,0,0,0,-64.67,49.95,36.48,6.5,-3.04,3.76,101020,-8.52,24.7,0,4,31,0,0
2773184,0,1,0,0,0,0,0,-64.73,49.88,36.54,6.7,-3.39,3.68,101020,-7.94,24.7,0,0,33,0,0
2773232,0,1,0,0,0,0,0,-64.77,49.81,36.62,6.8,-3.05,3.59,101016,-8.28,24.7,0,0,31,0,0
2773280,0,1,0,0,0,0,0,-64.87,49.75,36.67,6.76,-2.94,3.7,101020,-8.02,24.7,0,1,30,0,0
2773328,0,1,0,0,0,0,0,-64.96,49.68,36.72,6.48,-3.15,3.73,101020,-8.52,24.7,0,1,26,0,0
2773376,0,1,0,0,0,0,0,-65.06,49.64,36.76,6.79,-3,3.47,101026,-9.11,24.7,0,0,35,0,0
2773440,0,1,0,0,0,0,0,-65.2,49.62,36.75,6.83,-3.41,3.42,101023,-8.11,24.7,0,0,29,0,0
2773488,0,1,0,0,0,0,0,-65.33,49.6,36.77,6.59,-3.26,3.3,101022,-8.61,24.7,0,0,26,0,0
2773536,0,1,0,0,0,0,0,-65.46,49.56,36.8,6.48,-2.83,3.62,101017,-8.35,24.7,0,1,24,0,0
2773584,0,1,0,0,0,0,0,-65.59,49.57,36.79,6.57,-2.91,3.45,101022,-8.61,24.7,0,0,31,0,0
2773632,0,1,0,0,0,0,0,-65.71,49.6,36.76,6.6,-3.28,3.67,101019,-8.52,24.7,0,1,39,0,0
2773680,0,1,0,0,0,0,0,-65.83,49.63,36.74,6.7,-3.19,3.54,101017,-8.61,24.7,1,0,38,0,0
2773729,0,1,0,0,0,0,0,-65.93,49.65,36.74,6.82,-3.2,3.48,101017,-7.77,24.7,2,0,38,0,0
2773776,0,1,0,0,0,0,0,-66.02,49.66,36.74,6.72,-3.31,3.35,101016,-8.35,24.7,0,4,33,0,0
2773840,0,1,0,0,0,0,0,-66.13,49.67,36.74,6.59,-3.24,3.36,101012,-8.28,24.7,0,1,38,0,0
2773888,0,1,0,0,0,0,0,-66.25,49.67,36.73,6.71,-3.31,3.48,101015,-7.52,24.7,0,1,19,0,0
2773936,0,1,0,0,0,0,0,-66.37,49.7,36.72,7,-3.63,3.37,101017,-8.61,24.7,2,0,20,0,0
2773984,0,1,0,0,0,0,0,-66.48,49.72,36.71,6.97,-3.59,3.3,101023,-8.52,24.7,0,0,20,0,0
2774032,0,1,0,0,0,0,0,-66.64,49.73,36.7,6.93,-3.73,3.33,101020,-8.52,24.7,0,0,15,0,0
2774080,0,1,0,0,0,0,0,-66.78,49.69,36.73,7.02,-3.56,3.08,101019,-8.52,24.7,0,0,21,0,0
2774128,0,1,0,0,0,0,0,-66.96,49.68,36.71,7.05,-3.92,3.58,101022,-8.28,24.7,0,0,23,0,0
2774192,0,1,0,0,0,0,0,-67.05,49.61,36.77,7.21,-3.42,3.44,101028,-8.28,24.7,0,0,21,0,0
2774240,0,1,0,0,0,0,0,-67.26,49.57,36.76,6.8,-3.46,3.61,101029,-9.03,24.7,0,0,20,0,0
2774288,0,1,0,0,0,0,0,-67.47,49.55,36.74,6.68,-3.68,3.78,101020,-8.28,24.7,0,0,20,0,0
2774336,0,1,0,0,0,0,0,-67.6,49.56,36.74,7.22,-3.64,3.35,101022,-8.77,24.7,0,0,22,0,0
2774387,0,1,0,0,0,0,0,-67.75,49.6,36.72,7.12,-3.81,3.62,101016,-8.02,24.7,0,1,23,0,0
2774433,0,1,0,0,0,0,0,-67.88,49.55,36.77,6.84,-3.55,3.55,101031,-9.03,24.7,0,0,29,0,0
2774480,0,1,0,0,0,0,0,-67.99,49.53,36.8,7.09,-3.52,3.36,101020,-8.61,24.7,0,1,27,0,0
2774528,0,1,0,0,0,0,0,-68.15,49.5,36.83,6.82,-3.28,3.68,101022,-8.35,24.7,0,0,30,0,0
2774592,0,1,0,0,0,0,0,-68.28,49.44,36.88,6.42,-3.13,3.74,101025,-9.11,24.7,0,2,18,0,0
2774640,0,1,0,0,0,0,0,-68.36,49.44,36.91,6.43,-3.66,3.82,101022,-8.11,24.7,0,0,24,0,0
2774688,0,1,0,0,0,0,0,-68.26,49.45,37.03,6.84,-3.26,4.1,101025,-8.35,24.7,0,0,20,0,0
2774736,0,1,0,0,0,0,0,-68.17,49.4,37.16,7.14,-2.77,3.79,101019,-8.77,24.7,0,1,25,0,0
2774784,0,1,0,0,0,0,0,-68.35,49.41,37.14,6.61,-3.96,4.02,101032,-8.86,24.7,0,0,22,0,0
2774833,0,1,0,0,0,0,0,-68.4,49.43,37.17,7.02,-3.74,3.87,101022,-9.11,24.7,0,1,26,0,0
2774880,0,1,0,0,0,0,0,-68.47,49.46,37.18,7.06,-3.6,3.78,101029,-9.11,24.7,1,0,31,0,0
2774928,0,1,0,0,0,0,0,-68.63,49.39,37.23,6.91,-4.05,4.2,101029,-9.11,24.7,0,0,24,0,0
2774992,0,1,0,0,0,0,0,-68.75,49.29,37.34,6.57,-3.39,3.9,101025,-9.03,24.7,0,0,26,0,0
2775040,0,1,0,0,0,0,0,-68.86,49.34,37.33,6.46,-3.03,3.53,101026,-8.61,24.7,0,1,23,0,0
2775088,0,1,0,0,0,0,0,-68.99,49.46,37.28,6.4,-3.55,4.1,101023,-8.77,24.7,0,4,26,0,0
2775136,0,1,0,0,0,0,0,-69.08,49.44,37.33,6.43,-3.42,4.35,101031,-9.03,24.7,0,0,23,0,0
2775184,0,1,0,0,0,0,0,-69.18,49.32,37.42,6.4,-3.48,3.92,101023,-9.03,24.7,0,0,19,0,0
2775232,0,1,0,0,0,0,0,-69.14,49.27,37.5,6.33,-3.52,3.31,101025,-8.77,24.7,1,0,28,0,0
2775280,0,1,0,0,0,0,0,-69.14,49.36,37.5,6.3,-3.6,3.93,101028,-8.61,24.7,0,0,27,0,0
2775328,0,1,0,0,0,0,0,-69.2,49.39,37.5,6.33,-3.86,3.72,101031,-8.86,24.7,0,0,23,0,0
2775392,0,1,0,0,0,0,0,-69.26,49.38,37.52,6.86,-3.7,3.27,101029,-9.03,24.7,0,0,28,0,0
2775440,0,1,0,0,0,0,0,-69.17,49.43,37.57,6.34,-4.39,3.82,101028,-9.11,24.7,0,0,31,0,0
2775488,0,1,0,0,0,0,0,-69.13,49.4,37.69,6.52,-3.81,3.9,101022,-8.52,24.7,0,2,25,0,0
2775536,0,1,0,0,0,0,0,-69.27,49.36,37.72,7.72,-2.77,3.13,101029,-9.11,24.7,1,0,32,0,0
2775584,0,1,0,0,0,0,0,-69.36,49.4,37.7,7.17,-3.47,2.93,101026,-8.61,24.7,0,0,32,0,0
2775632,0,1,0,0,0,0,0,-69.52,49.51,37.64,6.83,-4.55,3.78,101017,-8.86,24.7,0,0,30,0,0
2775680,0,1,0,0,0,0,0,-69.5,49.62,37.68,7.12,-4.38,3.46,101019,-8.35,24.7,0,3,32,0,0
2775744,0,1,0,0,0,0,0,-69.33,49.65,37.84,7.31,-4.08,3.57,101029,-8.77,24.7,0,0,23,0,0
2775792,0,1,0,0,0,0,0,-69.27,49.68,37.93,6.16,-3.43,3.87,101031,-9.03,24.7,0,1,30,0,0
2775840,0,1,0,0,0,0,0,-69.46,49.74,37.89,5.68,-3.08,4.39,101025,-9.03,24.8,0,0,25,0,0
2775888,0,1,0,0,0,0,0,-69.74,49.78,37.8,6.02,-3.29,3.53,101032,-8.86,24.7,0,0,42,0,0
2775936,0,1,0,0,0,0,0,-70.01,49.84,37.68,6.31,-3.85,3.65,101019,-8.77,24.7,0,0,37,0,0
2775984,0,1,0,0,0,0,0,-70.16,49.92,37.63,6.42,-3.82,3.42,101028,-8.52,24.7,1,0,31,0,0
2776032,0,1,0,0,0,0,0,-70.35,50.06,37.5,6.45,-4.13,3.38,101025,-8.52,24.8,0,2,39,0,0
2776080,0,1,0,0,0,0,0,-70.47,50.18,37.42,6.52,-4.36,3.73,101028,-9.03,24.7,1,0,40,0,0
2776144,0,1,0,0,0,0,0,-70.57,50.23,37.39,6.33,-3.86,3.77,101029,-8.19,24.7,0,4,35,0,0
2776192,0,1,0,0,0,0,0,-70.66,50.28,37.37,6.23,-3.65,3.5,101026,-8.52,24.7,2,0,36,0,0
2776240,0,1,0,0,0,0,0,-70.9,50.29,37.35,6.22,-3.69,3.89,101022,-8.77,24.7,0,0,35,0,0
2776289,0,1,0,0,0,0,0,-71.19,50.29,37.29,6.25,-3.8,3.34,101031,-8.52,24.8,0,1,33,0,0
2776336,0,1,0,0,0,0,0,-71.48,50.3,37.24,6.55,-4.19,3.18,101031,-9.27,24.7,0,1,40,0,0
2776384,0,1,0,0,0,0,0,-71.71,50.29,37.24,6.27,-3.85,3.33,101023,-9.11,24.7,0,0,37,0,0
2776432,0,1,0,0,0,0,0,-71.94,50.28,37.23,6.43,-4.24,3.34,101022,-8.77,24.7,0,1,34,0,0
2776482,0,1,0,0,0,0,0,-72.11,50.24,37.25,6.19,-3.78,3.54,101023,-8.77,24.8,0,2,21,0,0
2776544,0,1,0,0,0,0,0,-72.24,50.25,37.25,6.09,-3.6,3.77,101029,-9.36,24.8,2,0,30,0,0
2776592,0,1,0,0,0,0,0,-72.44,50.26,37.21,5.95,-3.86,4,101035,-9.36,24.8,0,0,30,0,0
2776641,0,1,0,0,0,0,0,-72.6,50.21,37.23,6.12,-3.71,4.1,101032,-9.11,24.7,0,0,24,0,0
2776688,0,1,0,0,0,0,0,-72.67,50.12,37.3,6.47,-3.55,3.48,101025,-8.28,24.8,2,0,26,0,0
2776736,0,1,0,0,0,0,0,-72.9,50.09,37.29,6.89,-4.13,3.03,101023,-8.77,24.8,0,0,36,0,0
2776784,0,1,0,0,0,0,0,-73.21,50.1,37.27,6.69,-3.84,3.23,101029,-9.03,24.8,0,0,43,0,0
2776832,0,1,0,0,0,0,0,-73.65,50.14,37.2,6.14,-3.6,4.14,101034,-9.27,24.8,0,0,44,0,0
2776880,0,1,0,0,0,0,0,-74.11,50.2,37.14,5.88,-3.72,4.66,101029,-9.36,24.8,1,1,33,0,0
2776944,0,1,0,0,0,0,0,-74.65,50.28,37,6.37,-3.56,5.31,101032,-9.36,24.8,0,1,21,0,0
2776992,0,1,0,0,0,0,0,-75.37,50.09,37.14,5.58,-2.54,6.54,101029,-8.86,24.8,0,0,24,0,0
2777040,0,1,0,0,0,0,0,-76.15,49.57,37.53,2.24,-1.49,6.44,101022,-8.61,24.8,2,0,24,0,0
2777088,0,1,0,0,0,0,0,-76.39,49.35,37.67,4.73,-0.84,6.7,101020,-8.52,24.8,0,0,24,0,0
2777136,0,1,0,0,0,0,0,-76.5,49.58,37.44,8.11,-4.38,6.32,101020,-8.28,24.8,0,4,22,0,0
2777184,0,1,0,0,0,0,0,-76.93,49.79,37.3,7.39,-5.5,5.26,101020,-8.52,24.8,0,3,25,0,0
2777232,0,1,0,0,0,0,0,-77.22,50.17,37.02,8.38,-4.98,2.92,101020,-8.35,24.8,0,1,20,0,0
2777297,0,1,0,0,0,0,0,-77.92,50.5,36.77,6.96,-4.29,2.56,101016,-8.02,24.8,0,1,25,0,0
2777346,0,1,0,0,0,0,0,-78.49,50.57,36.69,1.58,0.11,3.39,101018,-8.02,24.8,0,0,21,0,0
2777392,0,1,0,0,0,0,0,-78.14,51.14,36.22,5.7,-1.63,2.13,101018,-7.94,24.8,0,1,24,0,0
2777440,0,1,0,0,0,0,0,-77.49,51.71,35.89,7.45,-4.55,0.93,101019,-8.28,24.8,0,0,24,0,0
2777488,0,1,0,0,0,0,0,-77.36,52.08,35.63,7.18,-4.24,0.3,101012,-7.94,24.8,0,3,19,0,0
2777536,0,1,0,0,0,0,0,-77.52,52.41,35.35,7.92,-4.1,-0.26,101016,-8.28,24.8,0,1,28,0,0
2777591,0,1,0,0,0,0,0,-77.75,52.52,35.26,5.78,-4.27,0.21,101016,-8.02,24.8,0,0,24,0,0
2777632,0,1,0,0,0,0,0,-77.91,52.56,35.21,5.63,-5.07,1.02,101020,-8.61,24.8,0,4,39,0,0
2777696,0,1,0,0,0,0,0,-77.8,52.67,35.19,6.42,-4.84,1.02,101018,-8.28,24.8,0,2,34,0,0
2777744,0,1,0,0,0,0,0,-77.76,52.8,35.17,7.56,-3.93,1.18,101031,-8.35,24.8,0,0,31,0,0
2777792,0,1,0,0,0,0,0,-78.05,52.84,35.12,7.1,-4.2,1.74,101026,-8.61,24.8,0,4,31,0,0
2777840,0,1,0,0,0,0,0,-78.75,52.82,35.01,7.15,-6.24,2.29,101025,-9.11,24.8,0,2,32,0,0
2777888,0,1,0,0,0,0,0,-79.48,52.8,34.95,6.66,-6.46,2.98,101026,-8.52,24.8,0,0,27,0,0
2777936,0,1,0,0,0,0,0,-79.89,52.83,34.95,5.91,-5.43,2.57,101026,-8.61,24.8,0,2,29,0,0
2777984,0,1,0,0,0,0,0,-80.56,52.73,34.99,5.8,-4.82,3.71,101028,-9.11,24.8,0,1,31,0,0
2778032,0,1,0,0,0,0,0,-81.27,52.46,35.16,5.33,-3.66,3.78,101022,-8.86,24.8,0,1,29,0,0
2778096,0,1,0,0,0,0,0,-81.66,52.2,35.32,4.86,-3.66,3.9,101026,-8.52,24.8,0,1,45,0,0
2778144,0,1,0,0,0,0,0,-81.71,52.05,35.46,5.59,-4.65,4.21,101026,-9.03,24.8,0,0,25,0,0
2778192,0,1,0,0,0,0,0,-81.53,51.9,35.67,5.79,-3.76,4.02,101022,-9.11,24.8,0,1,32,0,0
2778240,0,1,0,0,0,0,0,-81.5,51.75,35.84,5.72,-3.55,3.55,101031,-8.61,24.8,0,0,27,0,0
2778288,0,1,0,0,0,0,0,-81.64,51.54,36.06,6.89,-2.58,3.54,101016,-8.35,24.8,0,2,32,0,0
2778336,0,1,0,0,0,0,0,-82,51.26,36.28,6.09,-2.7,3.26,101026,-9.03,24.8,0,5,29,0,0
2778384,0,1,0,0,0,0,0,-82.39,51.04,36.44,5.65,-3.1,3.21,101026,-8.61,24.8,0,0,30,0,0
2778432,0,1,0,0,0,0,0,-82.25,50.88,36.7,5.04,-3.68,3.37,101025,-8.77,24.8,0,4,29,0,0
2778496,0,1,0,0,0,0,0,-81.59,50.67,37.1,4.6,-3.47,4.02,101022,-8.19,24.8,0,0,29,0,0
2778544,0,1,0,0,0,0,0,-80.54,50.56,37.44,5.29,-3.21,4.34,101022,-8.52,24.8,0,0,24,0,0
2778592,0,1,0,0,0,0,0,-79.32,50.4,37.8,6.11,-2.3,4.21,101022,-8.77,24.8,1,1,22,0,0
2778640,0,1,0,0,0,0,0,-78.54,50.18,38.08,5.88,-2.39,4.38,101022,-8.44,24.8,1,0,25,0,0
2778688,0,1,0,0,0,0,0,-78.01,49.99,38.25,4.2,-3.77,3.78,101028,-8.52,24.8,0,0,25,0,0
2778736,0,1,0,0,0,0,0,-77.8,49.94,38.3,5.42,-2.41,2.87,101022,-8.44,24.8,0,1,22,0,0
2778784,0,1,0,0,0,0,0,-78.23,50.18,38.02,4.89,-2.55,2.48,101019,-8.77,24.8,0,1,27,0,0
2778848,0,1,0,0,0,0,0,-78.78,50.37,37.83,5.09,-2.63,3.4,101025,-8.61,24.8,0,0,26,0,0
2778896,0,1,0,0,0,0,0,-78.57,50.36,37.81,5.85,-2.99,2.86,101021,-9.11,24.8,0,0,28,0,0
2778944,0,1,0,0,0,0,0,-78.92,50.3,37.7,4.88,-3.48,2.48,101025,-8.52,24.8,0,0,28,0,0
2778992,0,1,0,0,0,0,0,-79.94,50.31,37.4,4.66,-5.67,5.28,101022,-8.61,24.8,0,2,27,0,0
2779040,0,1,0,0,0,0,0,-79.52,50.14,37.87,7.57,-2.62,4.47,101025,-9.03,24.8,2,0,30,0,0
2779088,0,1,0,0,0,0,0,-80.49,50.4,37.53,6.28,0.46,0.31,101025,-8.52,24.8,1,0,28,0,0
2779136,0,1,0,0,0,0,0,-82.32,50.88,36.58,5.99,-6.3,3.21,101022,-8.61,24.8,0,0,25,0,0
2779184,0,1,0,0,0,0,0,-83.26,50.85,36.63,4.81,-3.89,3.34,101034,-9.11,24.8,0,0,28,0,0
2779248,0,0,0,0,0,0,0,-83.69,50.86,36.62,4.82,-2.45,3.25,101035,-9.36,24.8,0,0,24,0,0
2779296,0,0,0,0,0,0,0,-83.87,50.9,36.64,4.75,-2.45,3.73,101028,-8.61,24.8,1,1,23,0,0
2779344,0,0,0,0,0,0,0,-84.01,50.91,36.72,5.16,-1.1,3.38,101032,-9.11,24.8,0,0,28,0,0
2779392,0,0,0,0,0,0,0,-84.43,51.01,36.53,5.5,-2.69,2.96,101021,-9.11,24.8,0,0,28,0,0
2779440,0,0,0,0,0,0,0,-84.92,51.07,36.46,5.29,-3.49,3.59,101029,-9.11,24.8,0,0,26,0,0
2779488,0,0,0,0,0,0,0,-85.25,51.14,36.42,5.71,-3.61,3.27,101019,-8.52,24.8,0,2,22,0,0
2779536,0,0,0,0,0,0,0,-85.55,51.26,36.36,5.27,-3.19,3.44,101025,-9.36,24.8,0,2,22,0,0
2779585,0,0,0,0,0,0,0,-85.76,51.4,36.29,5.62,-2.88,3.13,101031,-9.27,24.8,0,2,17,0,0
2779648,1,0,0,0,0,0,0,-86.28,51.49,36.23,5.25,-3.99,4.12,101019,-8.44,24.8,0,1,16,0,0
2779696,1,0,0,0,0,0,0,-86.88,51.45,36.29,5.15,-3.38,4.24,101023,-8.86,24.8,0,0,17,0,0
2779744,1,0,0,0,0,0,0,-87.31,51.48,36.29,6.12,-4.45,2.86,101029,-9.11,24.8,0,0,20,0,0
2779792,1,0,0,0,0,0,0,-88.09,51.54,36.25,6.96,-6.01,1.36,101026,-8.69,24.8,0,0,21,0,0
2779840,1,0,0,0,0,0,0,-89.18,51.51,36.33,6.07,-4.8,1.39,101023,-8.19,24.8,0,0,24,0,0
2779888,1,0,0,0,0,0,0,-90.05,51.48,36.44,4.33,-0.73,1.18,101018,-8.44,24.8,0,0,23,0,0
2779935,1,0,0,0,0,0,0,-90.16,51.78,36.28,6.83,-2.47,3.23,101026,-8.61,24.8,0,2,24,0,0
2779983,1,0,0,0,0,0,0,-91.59,52.06,36.12,7.82,-2.82,2.59,101028,-9.11,24.8,0,1,20,0,0
2780048,1,0,0,0,0,0,0,-94.55,52.26,35.93,5.79,-3.37,1.44,101026,-8.77,24.8,2,1,24,0,0
2780096,1,0,0,0,0,0,0,-98.06,52.4,35.71,3.2,-3.68,0.95,101024,-8.69,24.8,0,0,24,0,0
2780144,1,0,0,0,0,0,0,-102.26,52.28,35.78,1.22,-0.96,4.6,101024,-9.11,24.8,0,3,23,0,0
2780192,1,0,0,0,0,0,0,-104.96,52.24,35.93,0.45,3.68,6.82,101025,-8.77,24.8,0,0,28,0,0
2780240,1,0,0,0,0,0,0,-105.51,52.75,35.55,3.4,0.42,7.06,101019,-8.44,24.8,0,0,24,0,0
2780288,1,0,0,0,0,0,0,-107.6,53.51,34.85,3.89,-2.8,8.28,101022,-8.44,24.8,0,0,24,0,0
2780336,1,0,0,0,0,0,0,-114.14,54.07,34.22,3.08,0.22,5.69,101024,-8.77,24.8,0,0,19,0,0
2780400,1,0,0,0,0,0,0,-121.04,54.4,33.78,3.97,2.13,4.64,101026,-7.94,24.8,0,0,19,0,0
2780447,1,0,0,0,0,0,0,-125.98,54.57,33.52,5.91,1.31,3.28,101022,-8.86,24.8,0,0,22,0,0
2780495,1,0,0,0,0,0,0,-132.51,54.42,33.38,9.08,-1.44,3.32,101019,-8.44,24.8,0,0,20,0,0
2780543,1,0,0,0,0,0,0,-145.37,53.76,33.77,5.75,1.81,3.29,101015,-8.44,24.8,1,0,24,0,0
2780592,1,0,0,0,0,0,0,-151.54,53.16,34.37,3.42,4.27,1.9,101018,-8.69,24.8,0,0,15,0,0
2780640,1,0,0,0,0,0,0,-156.02,52.64,34.8,6.36,2.89,3.73,101018,-8.02,24.8,0,0,20,0,0
2780687,1,0,0,0,0,0,0,-155.53,51.95,35.38,14.54,-1.69,3,101024,-8.19,24.8,0,0,18,0,0
2780736,1,0,0,0,0,0,0,-153.39,51.07,36.08,7.28,-13.51,-0.16,101022,-8.69,24.8,0,0,22,0,0
2780800,1,0,0,0,0,0,0,-151.9,49.45,37.07,6.58,-22.33,-0.32,101019,-8.28,24.8,0,0,23,0,0
2780847,1,0,0,0,0,0,0,-153.4,47.02,38.79,10.47,-11.5,2.6,101016,-8.02,24.8,0,0,22,0,0
2780896,1,0,0,0,0,0,0,-153.8,45.12,40.34,10.74,-2.57,4.18,101019,-8.69,24.8,0,1,16,0,0
2780944,1,0,0,0,0,0,0,-152.24,44,41.32,11.53,-4.7,7.7,101019,-7.77,24.8,0,4,21,0,0
2780992,1,0,0,0,0,0,0,-148.25,43.21,41.88,11.54,-10.69,6.51,101022,-8.52,24.8,0,1,23,0,0
2781040,1,0,0,0,0,0,0,-146.09,42.45,42.43,10.3,-10.8,3.45,101028,-8.69,24.8,0,1,62,0,0
2781088,1,0,0,0,0,0,0,-146.77,42.25,42.82,9.83,-8.99,2.98,101019,-8.69,24.8,0,0,65,0,0
2781135,1,0,0,0,0,0,0,-145.72,42.25,42.75,8.85,-7.02,3.31,101018,-7.94,24.8,0,4,39,0,0
2781199,1,0,0,0,0,0,0,-144.12,42.38,42.5,5.33,-2.71,5.85,101021,-9.27,24.8,2,0,38,0,0
2781247,1,0,0,0,0,0,0,-141.09,42.93,41.83,3.36,-2.33,2.97,101025,-8.69,24.8,0,4,33,0,0
2781296,1,0,0,0,0,0,0,-138.97,43.57,41.09,1.15,-1.47,4.31,101025,-8.86,24.8,0,2,26,0,0
2781343,1,0,0,0,0,0,0,-134.44,43.99,40.46,1.44,0.13,3.49,101025,-8.69,24.8,0,0,27,0,0
2781391,1,0,0,0,0,0,0,-131.42,43.98,40.6,0.04,1.06,4.76,101028,-8.44,24.8,0,0,23,0,0
2781439,1,0,0,0,0,0,0,-128.49,44,40.85,1.02,1.84,6.69,101026,-9.03,24.8,0,0,20,0,0
2781487,1,0,0,0,0,0,0,-123.56,44.44,40.8,9.88,-1.06,4.02,101024,-8.19,24.9,0,1,20,0,0
2781551,1,0,0,0,0,0,0,-120.4,45.34,40.26,25.11,-2.65,6.41,101022,-8.69,24.9,0,2,21,0,0
2781599,1,0,0,0,0,0,0,-121.28,46.27,39.39,16.62,-6.57,-3.2,101025,-8.77,24.9,0,2,17,0,0
2781647,1,0,0,0,0,0,0,-120.91,47.29,38.42,5.91,-10.8,3.36,101025,-8.86,24.8,0,1,17,0,0
2781695,1,0,0,0,0,0,0,-118.34,48.31,38.21,1.34,-9.61,0.17,101018,-8.44,24.8,0,1,20,0,0
2781743,1,0,0,0,0,0,0,-114.88,49.77,37.58,11.08,-8.19,-0.43,101021,-8.77,24.8,0,2,18,0,0
2781791,1,0,0,0,0,0,0,-115.52,50.84,37.29,12.32,-4.24,2.67,101025,-8.52,24.8,0,1,12,0,0
2781839,1,0,0,0,0,0,0,-118.92,50.93,37.59,8.51,-3.41,1.1,101024,-8.52,24.8,0,0,18,0,0
2781887,1,0,0,0,0,0,0,-120.21,51.01,37.67,8.03,-0.79,0.8,101021,-8.44,24.8,0,4,25,0,0
2781951,1,0,0,0,0,0,0,-116.16,51.74,36.69,5.96,-3.52,2.98,101025,-9.36,24.8,0,2,21,0,0
2781999,1,0,0,0,0,0,0,-118.26,52.51,35.67,3.45,-5.29,3.56,101031,-8.86,24.9,0,1,24,0,0
2782047,1,0,0,0,0,0,0,-125.67,53.21,35.04,2.52,0.76,3.98,101024,-8.28,24.9,0,2,26,0,0
2782095,1,0,0,0,0,0,0,-131.32,54.09,34.22,2.07,0.78,5,101024,-8.28,24.9,2,0,27,0,0
2782144,1,0,0,0,0,0,0,-135.99,54.72,33.47,-0.72,3.66,4.81,101025,-8.52,24.8,1,0,17,0,0
2782192,1,0,0,0,0,0,0,-140.94,54.92,33.22,2.31,8.47,0.01,101032,-8.69,24.8,0,0,23,0,0
2782239,1,0,0,0,0,0,0,-136.85,54.99,32.87,2.83,4.61,1.06,101026,-8.28,24.9,0,2,16,0,0
2782287,1,0,0,0,0,0,0,-134.69,55.13,32.35,4.56,-2.32,1.46,101025,-8.44,24.9,1,0,16,0,0
2782351,1,0,0,0,0,0,0,-140.62,54.85,32.66,2.75,4.87,0.3,101031,-8.94,24.9,0,0,16,0,0
2782399,1,0,0,0,0,0,0,-143.22,54.16,33.59,2.3,10.11,1.54,101022,-8.52,24.9,0,0,16,0,0
2782447,1,0,0,0,0,0,0,-134.99,53.5,34.03,9.41,-2.17,1.29,101019,-8.44,24.8,0,0,88,0,0
2782496,1,0,0,0,0,0,0,-133.65,52.2,34.91,7.56,-14.93,2.67,101025,-8.28,24.9,0,2,40,0,0
2782546,1,0,0,0,0,0,0,-136.38,50.07,36.16,8.46,-12.61,3.45,101022,-8.69,24.9,0,0,31,0,0
2782591,1,0,0,0,0,0,0,-137.41,47.41,37.98,10.24,-3.68,2.16,101016,-8.52,24.9,1,0,52,0,0
2782639,1,0,0,0,0,0,0,-137.79,44.96,40.03,12.7,-0.77,6.04,101021,-8.28,24.9,0,4,45,0,0
2782687,1,0,0,0,0,0,0,-135.06,43.58,41.4,10.82,-5.25,7.49,101019,-8.86,24.9,0,1,42,0,0
2782751,1,0,0,0,0,0,0,-132.3,42.79,42.48,7.83,-6.39,4.41,101024,-8.52,24.9,0,3,118,0,0
2782799,1,0,0,0,0,0,0,-131.51,42.46,43.11,5.02,-4.67,2.36,101021,-7.69,24.9,0,2,64,0,0
2782848,1,0,0,0,0,0,0,-128.75,42.99,42.65,0.61,-7.28,0.8,101013,-8.02,24.8,0,3,48,0,0
2782896,1,0,0,0,0,0,0,-123.91,44.44,41.11,-2.89,-4.83,4.49,101021,-7.52,24.9,1,0,55,0,0
2782943,1,0,0,0,0,0,0,-120.82,45.52,39.58,-1.36,0.66,5.09,101013,-8.52,24.9,0,2,39,0,0
2782992,1,0,0,0,0,0,0,-118.54,46.09,38.86,-0.52,6.37,4.83,101024,-8.44,24.9,1,0,39,0,0
2783039,1,0,0,0,0,0,0,-118.39,45.77,39.1,-0.18,4.53,1.8,101025,-8.44,24.9,0,4,35,0,0
2783104,1,0,0,0,0,0,0,-113.73,45.92,39.15,7.82,7.08,4.35,101015,-8.19,24.9,0,4,39,0,0
2783153,1,0,0,0,0,0,0,-109.27,46.8,38.14,28.34,0.02,5.04,101016,-8.28,24.9,0,0,51,0,0
2783199,1,0,0,0,0,0,0,-110.57,47.39,37.59,15.3,-12.97,-0.46,101024,-8.94,24.9,0,3,46,0,0
2783247,1,0,0,0,0,0,0,-108.19,48.03,36.34,2.66,-12.48,-1.06,101016,-8.28,24.9,0,0,42,0,0
2783295,1,0,0,0,0,0,0,-105.85,49.44,36.07,14.24,-8.33,-9.07,101022,-8.52,24.9,0,1,31,0,0
2783343,1,0,0,0,0,0,0,-104.84,50.55,35.61,15.6,-9.22,-4.64,101010,-8.02,24.9,0,0,26,0,0
2783391,1,0,0,0,0,0,0,-106.12,51.65,35.07,15.72,-13.4,-5.51,101016,-8.44,24.9,1,0,33,0,0
2783439,1,0,0,0,0,0,0,-111.35,52.18,34.72,12.76,-10.82,-3,101031,-9.03,24.9,0,1,40,0,0
2783503,1,0,0,0,0,0,0,-121.98,52.15,35.03,9.93,-13.45,-4.84,101015,-8.19,24.9,0,0,40,0,0
2783552,1,0,0,0,0,0,0,-140.76,51.29,35.82,13.99,-15.74,-4.16,101019,-8.28,24.9,0,2,38,0,0
2783599,1,0,0,0,0,0,0,-168.88,49.88,37.38,15.72,-16.31,-8.39,101016,-8.28,24.9,0,0,31,0,0
2783647,1,0,0,0,0,0,0,169.9,48.07,39.32,16.84,-12.47,-5.59,101022,-8.69,24.9,0,0,23,0,0
2783695,1,0,0,0,0,0,0,159.37,46.59,40.93,8.84,4.01,-6.51,101021,-8.77,24.9,0,2,23,0,0
2783743,1,0,0,0,0,0,0,155.33,46.17,41.22,9.79,-5.97,2.42,101016,-7.77,24.9,0,4,23,0,0
2783792,1,0,0,0,0,0,0,151.89,45.74,41.46,15.01,-19.33,7.08,101013,-8.19,24.9,0,4,21,0,0
2783839,1,0,0,0,0,0,0,147.14,45.28,42.3,14.5,-14.88,5.05,101027,-9.03,24.9,0,2,15,0,0
2783906,1,0,0,0,0,0,0,142.63,45.63,42.39,10.15,-5.09,3.84,101025,-8.52,24.9,0,1,15,0,0
2783951,1,0,0,0,0,0,0,139.17,46.42,41.91,3.87,-0.91,5.5,101019,-8.44,24.9,0,3,18,0,0
2784000,1,0,0,0,0,0,0,136.75,47.29,41.15,3.72,-3.83,7.77,101019,-8.28,24.9,0,4,15,0,0
2784047,1,0,0,0,0,0,0,134.67,48.15,40.42,6.25,-5.83,8.58,101024,-8.02,24.9,0,2,17,0,0
2784095,1,0,0,0,0,0,0,132.23,49.34,39.44,7.53,-9.49,8.14,101024,-8.77,24.9,0,5,17,0,0
2784143,1,0,0,0,0,0,0,130.09,50.29,38.91,-1.31,-1.26,10.56,101025,-8.52,24.9,0,2,21,0,0
2784192,1,0,0,0,0,0,0,129.61,49.96,39.49,-5.6,6.91,19.92,101027,-8.28,24.9,2,0,30,0,0
2784255,1,0,0,0,0,0,0,130.31,48.94,40.72,1.13,3.67,24.38,101025,-9.03,24.9,0,0,32,0,0
2784304,1,0,0,0,0,0,0,130.82,48.3,41.47,5.94,-5.46,25.1,101022,-9.03,24.9,0,1,27,0,0
2784351,1,0,0,0,0,0,0,131.19,47.87,41.97,8.06,-12.38,20,101024,-8.52,24.9,2,0,24,0,0
2784399,1,0,0,0,0,0,0,131.52,47.6,42.31,10.16,-16.35,17.61,101016,-7.94,24.9,0,0,22,0,0
2784447,1,0,0,0,0,0,0,131.73,47.77,42.21,11.01,-12.51,11.93,101016,-8.94,24.9,0,6,17,0,0
2784495,1,0,0,0,0,0,0,131.95,48.31,41.69,11.81,-5.19,11.88,101028,-8.69,24.9,0,1,18,0,0
2784543,1,0,0,0,0,0,0,132.18,48.61,41.36,10.55,-0.87,12.74,101018,-8.52,24.9,0,0,20,0,0
2784591,1,0,0,0,0,0,0,132.64,48.4,41.56,6.09,-4.09,13.8,101019,-8.02,24.9,1,0,22,0,0
2784655,1,0,0,0,0,0,0,132.61,48.41,41.56,4.55,-9.29,16.65,101016,-7.94,24.9,0,0,23,0,0
2784703,1,0,0,0,0,0,0,132.76,48.65,41.31,6.08,-9.95,18.74,101019,-8.02,24.9,1,0,25,0,0
2784751,1,0,0,0,0,0,0,133.59,48.84,41.07,6.73,-3.56,21.34,101022,-8.02,24.9,1,4,21,0,0
2784799,1,0,0,0,0,0,0,134.4,49.04,40.83,4.78,1.51,20.7,101022,-8.28,24.9,4,2,21,0,0
2784847,1,0,0,0,0,0,0,134.42,49.51,40.34,4.69,-3.12,21.42,101025,-8.52,24.9,0,4,23,0,0
2784895,1,0,0,0,0,0,0,133.91,50.12,39.74,7.01,-5.72,22.75,101024,-8.28,24.9,4,1,32,0,0
2784943,1,0,0,0,0,0,0,134.24,50.76,39.05,5.72,-3.38,21.61,101027,-8.69,24.9,0,5,31,0,0
2784991,1,0,0,0,0,0,0,136.53,51.42,38.23,1.26,1.8,26.33,101022,-8.28,24.9,0,2,28,0,0
2785056,1,0,0,0,0,0,0,133.81,51.3,38.57,7.06,-0.82,18.26,101021,-8.28,24.9,0,0,26,0,0
2785103,1,0,0,0,0,0,0,130.44,51.97,38,9.03,-3.51,15.82,101025,-7.94,24.9,0,0,30,0,0
2785151,1,0,0,0,0,0,0,127.61,52.79,37.21,4.61,-4.28,16.8,101019,-8.02,24.9,0,2,25,0,0
2785202,1,0,0,0,0,0,0,125.61,52.85,37.14,2.9,-0.35,16.12,101022,-8.28,24.9,0,1,24,0,0
2785247,1,0,0,0,0,0,0,123.79,52.53,37.43,5.07,-1.7,13.88,101027,-9.03,24.9,0,4,27,0,0
2785295,1,0,0,0,0,0,0,121.36,52.22,37.66,3.97,-7.49,15.81,101030,-9.19,24.9,0,0,31,0,0
2785343,1,0,0,0,0,0,0,120.47,51.57,38.27,4.82,-12.69,16.12,101021,-9.19,24.9,0,0,23,0,0
2785391,1,0,0,0,0,0,0,117.98,50.49,39.24,9.52,-14.73,20.08,101024,-9.19,24.9,0,4,19,0,0
2785455,1,0,0,0,0,0,0,112.9,49.17,40.32,11.03,-13.54,16.37,101025,-8.44,24.9,0,2,18,0,0
2785503,1,0,0,0,0,0,0,104.29,47.27,41.81,10.52,-4.74,22.34,101024,-8.69,24.9,2,0,18,0,0
2785551,1,0,0,0,0,0,0,96.19,45.22,43.28,8.92,-3.02,19.88,101025,-8.28,24.9,0,2,12,0,0
2785599,1,0,0,0,0,0,0,93.14,43.71,44.4,11.69,-5.4,17.51,101022,-8.69,24.9,0,0,20,0,0
2785647,1,0,0,0,0,0,0,90.7,43.42,44.27,11.43,-12.88,19.2,101022,-8.52,24.9,0,0,14,0,0
2785695,1,0,0,0,0,0,0,86.71,43.86,43.64,4.26,-12.08,13.08,101018,-8.44,24.9,0,0,23,0,0
2785743,1,0,0,0,0,0,0,82.65,45.17,42.27,1.9,-8.01,15.16,101015,-8.02,24.9,0,1,19,0,0
2785791,1,0,0,0,0,0,0,79.75,46.87,40.26,-2.68,-3.13,14.22,101022,-8.77,24.9,0,0,24,0,0
2785855,1,0,0,0,0,0,0,78.76,48.83,38.39,-3.32,-2.74,13.55,101019,-8.44,24.9,0,2,25,0,0
2785903,1,0,0,0,0,0,0,78.43,49.7,37.68,-4.33,-3.75,15.97,101022,-8.28,24.9,0,0,18,0,0
2785952,1,0,0,0,0,0,0,80.91,49.74,37.93,4.76,-0.01,15.16,101021,-8.52,24.9,0,3,25,0,0
2785999,1,0,0,0,0,0,0,83.95,49.64,38.11,23.72,-4.69,20.14,101024,-8.77,24.9,0,0,22,0,0
2786047,1,0,0,0,0,0,0,88.08,49.57,38.53,8.43,-4.43,6.28,101016,-8.77,24.9,0,0,17,0,0
2786095,1,0,0,0,0,0,0,92.75,50.59,37.68,8.79,-12.47,10.96,101024,-8.28,24.9,0,1,24,0,0
2786146,1,0,0,0,0,0,0,94.28,51.81,36.41,9.81,-12.76,2.38,101019,-8.52,24.9,0,0,24,0,0
2786207,1,0,0,0,0,0,0,94.79,52.4,36.1,9.75,-6.86,5.15,101025,-8.69,24.9,0,2,21,0,0
2786255,1,0,0,0,0,0,0,95.72,52.74,35.89,6.94,-6.12,7.16,101025,-8.77,24.9,0,2,26,0,0
2786303,1,0,0,0,0,0,0,95.76,53.16,35.48,7,-5.65,5.87,101018,-8.44,24.9,0,2,29,0,0
2786351,1,0,0,0,0,0,0,95.42,53.48,35.21,7.54,-6.7,7.7,101024,-8.52,24.9,0,3,32,0,0
2786399,1,0,0,0,0,0,0,94.46,53.36,35.37,6.12,-4.48,7.51,101024,-8.02,24.9,0,2,36,0,0
2786447,1,0,0,0,0,0,0,93.83,53.14,35.66,4.5,-1.62,8.8,101024,-8.28,24.9,0,1,38,0,0
2786495,1,0,0,0,0,0,0,93.95,53.01,35.82,4.07,-1.77,9.08,101024,-8.94,24.9,2,0,34,0,0
2786543,1,0,0,0,0,0,0,93.57,52.88,35.84,5.6,-3.53,8.14,101016,-8.28,24.9,0,2,31,0,0
2786607,1,0,0,0,0,0,0,92.81,52.82,35.73,6.03,-5.03,7.8,101019,-8.19,24.9,0,4,33,0,0
2786655,1,0,0,0,0,0,0,92.19,52.85,35.6,5.95,-5.25,7.24,101024,-8.52,24.9,2,1,32,0,0
2786705,1,0,0,0,0,0,0,91.58,52.84,35.54,5.23,-4.5,7.53,101022,-8.77,24.9,0,0,35,0,0
2786751,1,0,0,0,0,0,0,91.02,52.85,35.46,5.73,-4.27,7.21,101019,-8.44,24.9,0,1,33,0,0
2786799,1,0,0,0,0,0,0,90.3,52.82,35.41,5.63,-3.86,7.26,101022,-8.02,24.9,0,0,32,0,0
2786848,1,0,0,0,0,0,0,89.56,52.73,35.4,5.5,-3.74,6.98,101021,-8.19,24.9,0,0,31,0,0
2786895,1,0,0,0,0,0,0,88.92,52.63,35.43,5.37,-3.87,6.61,101022,-8.28,24.9,0,0,31,0,0
2786943,1,0,0,0,0,0,0,88.13,52.51,35.47,5.7,-3.82,6.61,101022,-8.69,24.9,0,1,32,0,0
2787007,1,0,0,0,0,0,0,87.14,52.38,35.53,5.71,-3.78,6.6,101025,-8.94,24.9,0,3,32,0,0
2787055,1,0,0,0,0,0,0,86,52.26,35.57,5.46,-3.56,6.43,101019,-8.28,24.9,0,2,31,0,0
2787105,1,0,0,0,0,0,0,84.83,52.18,35.59,5.18,-3.26,6.32,101018,-8.02,24.9,0,0,34,0,0
2787151,1,0,0,0,0,0,0,83.72,52.1,35.62,5.6,-3.48,6.06,101019,-8.19,24.9,0,2,36,0,0
2787200,1,0,0,0,0,0,0,82.55,52.02,35.67,5.34,-2.97,6.19,101019,-8.19,24.9,0,0,35,0,0
2787247,1,0,0,0,0,0,0,81.49,51.92,35.75,5.28,-3.08,5.98,101018,-8.02,24.9,0,1,32,0,0
2787295,1,0,0,0,0,0,0,80.48,51.8,35.84,5.22,-3.4,6.05,101021,-8.02,24.9,0,1,36,0,0
2787343,1,0,0,0,0,0,0,79.53,51.73,35.89,5.46,-3.32,6.15,101018,-8.02,24.9,0,0,30,0,0
2787407,1,0,0,0,0,0,0,78.48,51.71,35.88,5.77,-3.75,6.05,101019,-7.85,24.9,0,2,31,0,0
2787455,1,0,0,0,0,0,0,77.3,51.67,35.9,5.9,-3.4,5.73,101019,-8.02,24.9,1,1,34,0,0
2787503,1,0,0,0,0,0,0,76.06,51.62,35.93,5.93,-3.57,5.46,101015,-7.85,24.9,0,1,31,0,0
2787551,1,0,0,0,0,0,0,74.82,51.55,35.99,6.23,-3.5,5.42,101027,-8.69,24.9,0,5,31,0,0
2787601,1,0,0,0,0,0,0,73.67,51.45,36.07,5.82,-3.6,5.2,101019,-8.19,24.9,2,0,36,0,0
2787647,1,0,0,0,0,0,0,72.52,51.33,36.15,5.71,-3.83,5.58,101027,-8.77,24.9,0,2,27,0,0
2787695,1,0,0,0,0,0,0,71.24,51.21,36.23,6.18,-4.3,5.9,101024,-8.69,24.9,0,5,32,0,0
2787759,1,0,0,0,0,0,0,69.74,51.09,36.32,6.05,-4.28,6.02,101012,-7.6,24.9,0,3,33,0,0
2787807,1,0,0,0,0,0,0,68.25,50.98,36.4,5.93,-3.49,5.86,101018,-8.77,24.9,0,5,34,0,0
2787855,1,0,0,0,0,0,0,66.9,50.85,36.47,6.2,-3.44,5.56,101021,-8.69,24.9,0,0,36,0,0
2787903,1,0,0,0,0,0,0,65.65,50.7,36.56,6.49,-3.84,5.62,101015,-8.02,24.9,0,0,37,0,0
2787951,1,0,0,0,0,0,0,64.29,50.54,36.68,6.68,-3.88,5.71,101021,-8.52,24.9,0,0,34,0,0
2787999,1,0,0,0,0,0,0,62.49,50.32,36.87,6.76,-3.8,6.76,101025,-8.52,24.9,0,2,34,0,0
2788047,1,0,0,0,0,0,0,59.66,49.92,37.23,6.05,-2.4,7.47,101028,-9.19,24.9,2,0,40,0,0
2788095,1,0,0,0,0,0,0,56.52,49.41,37.66,7.2,-1.75,9.04,101031,-9.19,24.9,0,4,25,0,0
2788159,1,0,0,0,0,0,0,54.5,49.08,37.95,6.46,-3.13,8.66,101022,-8.52,24.9,0,4,23,0,0
2788207,1,0,0,0,0,0,0,51.71,48.8,38.13,5.93,-3.57,9.04,101021,-9.19,24.9,2,0,22,0,0
2788255,1,0,0,0,0,0,0,47.39,48.43,38.5,3.85,-3.94,9.67,101024,-8.77,24.9,0,4,13,0,0
2788305,1,0,0,0,0,0,0,46.32,47.16,39.63,-8.67,6.85,10.1,101019,-8.44,24.9,0,1,16,0,0
2788352,1,0,0,0,0,0,0,43.62,45.53,41.08,-7.03,2.58,10.59,101019,-8.19,24.9,0,0,16,0,0
2788402,1,0,0,0,0,0,0,49.52,45.28,40.61,-2.54,2.1,6.57,101021,-8.19,24.9,0,0,14,0,0
2788447,1,0,0,0,0,0,0,48.51,45.66,40.12,14.38,-4.63,4.49,101019,-8.19,24.9,0,0,15,0,0
2788495,1,0,0,0,0,0,0,41.89,46.32,40.65,8.8,-9.63,6.12,101018,-8.52,24.9,0,0,11,0,0
2788559,1,0,0,0,0,0,0,36.69,48.43,39.23,13.21,-13.63,-0.92,101019,-7.69,24.9,0,2,11,0,0
2788607,1,0,0,0,0,0,0,20.52,49.81,38.23,10.01,-1.45,3.35,101024,-8.44,24.9,0,4,6,0,0
2788655,1,0,0,0,0,0,0,11.64,49.79,38.34,8.7,5.04,1.58,101019,-8.28,24.9,0,4,7,0,0
2788703,1,0,0,0,0,0,0,10.21,50.97,36.95,5.43,0.27,3.06,101016,-8.02,24.9,0,1,10,0,0
2788751,1,0,0,0,0,0,0,4.82,52.29,35.43,1.07,-6.97,4.87,101021,-8.52,24.9,0,2,15,0,0
2788799,1,0,0,0,0,0,0,-8.27,53.26,34.87,0.87,-1.2,7.16,101019,-8.02,24.9,0,3,12,0,0
2788847,1,0,0,0,0,0,0,-20.04,53.92,34.49,-2.53,4.08,14.52,101019,-8.28,24.9,0,1,21,0,0
2788911,1,0,0,0,0,0,0,-27.01,54.14,34.49,-3.7,17.13,16.04,101015,-8.52,24.9,0,0,23,0,0
2788959,1,0,0,0,0,0,0,-26.23,53.77,34.89,6.82,18.66,10.42,101014,-8.19,24.9,0,4,26,0,0
2789007,1,0,0,0,0,0,0,-18.77,53.18,35.18,27.97,0.29,-5.97,101018,-8.02,24.9,0,0,24,0,0
2789055,1,0,0,0,0,0,0,-17.31,51.05,37.05,13.97,-2.24,5.27,101021,-7.85,24.9,0,2,16,0,0
2789104,1,0,0,0,0,0,0,-4.93,48.55,38.08,13.9,-30.45,6.39,101015,-7.85,24.9,0,1,20,0,0
2789151,1,0,0,0,0,0,0,-3.72,45.54,40.15,11.67,-13.36,-6.47,101015,-7.85,24.9,1,0,22,0,0
2789199,1,0,0,0,0,0,0,-4.69,43.4,41.85,11.23,-6.46,5.1,101021,-7.94,24.9,0,0,23,0,0
2789247,1,0,0,0,0,0,0,-3.36,42.41,42.63,10.72,-16.73,7.94,101018,-7.94,24.9,0,3,24,0,0
2789311,1,0,0,0,0,0,0,-4.75,41.64,43.55,3.48,-16.49,3.92,101015,-8.19,24.9,0,0,28,0,0
2789359,1,0,0,0,0,0,0,-7.08,41.57,43.77,-5.96,-7.7,6.6,101016,-7.44,24.9,0,0,23,0,0
2789407,1,0,0,0,0,0,0,-6.04,42.7,42.33,-11.99,-7.54,1.32,101018,-7.94,24.9,1,0,29,0,0
2789455,1,0,0,0,0,0,0,-6.23,43.73,41.17,4.59,2.16,15.48,101019,-8.02,24.9,0,0,26,0,0
2789503,1,0,0,0,0,0,0,-9.45,43.27,42.63,18.3,0.66,12.45,101011,-7.94,24.9,0,0,40,0,0
2789551,1,0,0,0,0,0,0,-20.74,42.44,45.29,15.87,0.23,12.6,101008,-7.19,24.9,0,0,36,0,0
2789599,1,0,0,0,0,0,0,-16,42.53,44.34,22.73,1.51,13.93,101011,-6.94,24.9,0,0,24,0,0
2789647,1,0,0,0,0,0,0,-8.5,43,42.54,22.83,-17.29,-15.4,101008,-7.69,24.9,0,0,32,0,0
2789711,1,0,0,0,0,0,0,-5.87,45.21,40.21,13.76,-13.91,2.77,101015,-8.02,25,2,0,24,0,0
2789759,1,0,0,0,0,0,0,-10.7,48.19,38.08,14.91,-17.28,-5.62,101018,-7.6,24.9,1,0,23,0,0
2789807,1,0,0,0,0,0,0,-18.39,49.85,37.16,14.27,-3.9,-1.46,101012,-8.02,24.9,0,2,24,0,0
2789855,1,0,0,0,0,0,0,-21.41,51.27,35.93,-5.58,3.25,7.26,101015,-8.52,24.9,0,1,16,0,0
2789903,1,0,0,0,0,0,0,-19.83,53.19,33.9,-1.73,-13.33,3.51,101024,-8.28,24.9,0,2,19,0,0
2789953,1,0,0,0,0,0,0,-25.09,54.86,32.64,-1.3,-1.12,9.36,101016,-8.19,25,2,0,27,0,0
2789999,1,0,0,0,0,0,0,-29.32,56.5,31.29,-5.16,10.09,13.58,101018,-7.94,24.9,0,0,26,0,0
2790047,1,0,0,0,0,0,0,-31.66,57.64,30.52,9.43,8.7,15.94,101014,-7.69,24.9,0,0,40,0,0
2790111,1,0,0,0,0,0,0,-29.84,57.37,30.67,20.83,14.83,-1.9,101014,-7.85,25,0,0,39,0,0
2790159,1,0,0,0,0,0,0,-19.03,53.82,32.93,13.61,16.17,-5.71,101014,-8.02,24.9,0,0,28,0,0
2790207,1,0,0,0,0,0,0,-0.47,49.58,33.75,7.8,-5.27,8.72,101006,-7.69,25,1,0,20,0,0
2790255,1,0,0,0,0,0,0,12.66,47.22,34.44,-0.68,-5.11,-28.13,101009,-7.85,24.9,0,2,18,0,0
2790303,1,0,0,0,0,0,0,19.15,45.39,34.36,1.73,19.37,0.05,101016,-7.94,24.9,0,0,8,0,0
2790351,1,0,0,0,0,0,0,31.35,45.94,32.55,5.19,7.61,-1.64,101009,-7.94,24.9,0,0,13,0,0
2790399,1,0,0,0,0,0,0,43.33,46.88,31.33,-2.92,-3.88,-16.42,101015,-7.94,25,0,2,7,0,0
2790463,1,0,0,0,0,0,0,53.95,48.68,29.83,-6.38,-5.5,-16.02,101014,-7.69,25,0,0,10,0,0
2790512,1,0,0,0,0,0,0,64.03,51.32,28.36,0.18,-2.43,-11.97,101017,-8.19,25,0,0,1,0,0
2790560,1,0,0,0,0,0,0,73.25,53.66,28.52,-2.56,4.95,-4.92,101011,-7.69,25,0,0,5,0,0
2790607,1,0,0,0,0,0,0,81.87,54.72,29.35,4.05,6.24,0.43,101015,-8.02,25,0,1,8,0,0
2790654,1,0,0,0,0,0,0,87.23,53.94,30.14,7.27,5.12,6.81,101014,-7.94,25,3,0,8,0,0
2790702,1,0,0,0,0,0,0,92.69,54.45,30.41,57.67,0.72,1.68,101025,-8.52,25,1,1,6,0,0
2790750,1,0,0,0,0,0,0,98.04,55.33,30.22,-8.09,1.37,-8.68,101014,-8.11,25,0,2,3,0,0
2790798,1,0,0,0,0,0,0,103.84,57.27,29.34,-3.54,-1.35,-22.11,101015,-7.94,25,4,0,8,0,0
2790863,1,0,0,0,0,0,0,108.43,59.4,28.7,25.79,-14.97,-14.32,101022,-8.28,25,2,2,132,0,0
2790911,1,0,0,0,0,0,0,109.44,61.48,26.97,4.09,-11.51,7.47,101019,-7.94,25,3,4,35,0,0
2790958,1,0,0,0,0,0,0,110.14,61.33,27.37,-1.87,9.8,2.93,101017,-8.28,25,4,0,8,0,0
2791006,1,0,0,0,0,0,0,112.34,60.52,28.53,-5.19,-0.15,0.62,101022,-9.03,25,3,0,24,0,0
2791054,1,0,0,0,0,0,0,112.38,60.74,28.35,-3.26,-3.82,4,101022,-8.11,25,2,0,28,0,0
2791102,1,0,0,0,0,0,0,112.1,61.67,27.67,-1.11,1.03,8.33,101019,-8.94,25,0,1,20,0,0
2791151,1,0,0,0,0,0,0,111.88,60.75,28.47,-0.69,9.11,15.15,101018,-8.19,25,0,4,63,0,0
2791199,1,0,0,0,0,0,0,110.34,59.76,28.97,1.69,10.67,9.32,101018,-8.44,25,1,0,114,0,0
2791263,1,0,0,0,0,0,0,108.96,59.4,29.07,4.54,3.07,9.22,101017,-8.19,25,0,0,109,0,0
2791310,1,0,0,0,0,0,0,107.52,58.76,29.63,12.85,-3.63,13.9,101017,-7.69,25,0,2,67,0,0
2791358,1,0,0,0,0,0,0,105.56,56.92,31.27,17.15,14.79,4.5,101014,-7.94,25,0,0,109,0,0
2791407,1,0,0,0,0,0,0,104.24,54.58,33.29,19.06,14.25,-9.39,101017,-8.11,25,0,1,48,0,0
2791454,1,0,0,0,0,0,0,100.15,52.95,34.05,5.19,-7.21,-6.64,101015,-7.6,25,0,4,95,0,0
2791503,1,0,0,0,0,0,0,95.45,51.16,34.76,-6.33,-22.09,-18.69,101011,-8.44,25,0,4,55,0,0
2791550,1,0,0,0,0,0,0,80.85,46.9,40.42,-9.21,11.59,33.45,101021,-7.85,25,0,1,26,0,0
2791614,1,0,0,0,0,0,0,73.12,44.91,42.32,12.33,-0.19,5.4,101019,-7.94,25,0,0,40,0,0
2791662,1,0,0,0,0,0,0,51.49,44,43.97,3.34,-8.91,0.01,101011,-8.11,25,2,0,32,0,0
2791710,1,0,0,0,0,0,0,33.07,42.91,44.49,0.16,-11.4,6.13,101014,-7.44,25,0,1,34,0,0
2791759,1,0,0,0,0,0,0,28.43,43.27,43.35,-2.16,-7.91,5.71,101009,-7.6,25,1,1,46,0,0
2791806,1,0,0,0,0,0,0,31.47,44.34,41.42,-10.01,-7.8,9.77,101017,-7.94,25,0,4,47,0,0
2791855,1,0,0,0,0,0,0,29.34,44.59,40.98,-8.08,4.86,11.02,101012,-7.85,25,0,1,40,0,0
2791902,1,0,0,0,0,0,0,14.63,43.11,43.83,0.49,8.2,9.61,101018,-7.44,25,0,0,39,0,0
2791950,1,0,0,0,0,0,0,-2.42,41.37,46.77,24.97,15.26,22.61,101012,-7.69,25,0,2,30,0,0
2792014,1,0,0,0,0,0,0,-4.55,42.62,45.55,42.8,-14.13,15.93,101011,-7.85,25,1,1,44,0,0
2792063,1,0,0,0,0,0,0,-16.48,43.06,45.47,24.17,-38.28,-0.04,101015,-8.11,25,0,1,53,0,0
2792111,1,0,0,0,0,0,0,-22.63,44.14,44.45,12.52,-34.1,-5.7,101015,-7.69,25,0,0,39,0,0
2792158,1,0,0,0,0,0,0,-33.56,45.12,44.16,21.48,-20.12,-2.94,101012,-7.85,25,0,0,52,0,0
2792206,1,0,0,0,0,0,0,-42.79,46.11,43.8,21.66,-6.7,4.18,101018,-7.94,25,0,0,48,0,0
2792255,1,0,0,0,0,0,0,-45.72,46.29,43.71,12.7,-6.35,7.07,101017,-7.44,25,0,6,62,0,0
2792302,1,0,0,0,0,0,0,-46.27,46.67,43.32,6.11,-3.84,5.45,101009,-7.44,25,0,0,50,0,0
2792352,1,0,0,0,0,0,0,-45.48,46.81,43.15,1.02,-6.93,15.24,101015,-8.19,25,1,0,47,0,0
2792414,1,0,0,0,0,0,0,-46.09,47.06,42.91,4.36,-6.93,14.41,101009,-7.6,24.9,0,4,52,0,0
2792463,1,0,0,0,0,0,0,-47.01,47.76,42.22,8.6,-5.89,12.88,101012,-7.36,24.9,0,5,64,0,0
2792510,1,0,0,0,0,0,0,-47.5,48.48,41.46,7.17,-4.71,5.77,101011,-7.69,24.9,0,0,53,0,0
2792559,1,0,0,0,0,0,0,-47.32,48.31,41.58,3.04,-1.34,-4.56,101008,-7.85,25,0,4,47,0,0
2792607,1,0,0,0,0,0,0,-47.06,47.96,41.87,4.68,-4.59,-3.88,101011,-7.6,25,0,2,39,0,0
2792655,1,0,0,0,0,0,0,-47.18,48.06,41.66,12.17,-17.33,5.62,101017,-8.19,25,0,0,31,0,0
2792702,1,0,0,0,0,0,0,-47.87,48.24,41.43,27.4,-21.53,17.08,101015,-7.94,25,0,0,42,0,0
2792752,1,0,0,0,0,0,0,-48.56,48.39,41.4,19.62,-13.01,6.11,101017,-7.44,25,0,3,55,0,0
2792814,1,0,0,0,0,0,0,-49.61,48.92,40.85,0.31,-6.62,15.62,101020,-8.19,25,0,4,64,0,0
2792862,1,0,0,0,0,0,0,-51.53,49.85,39.67,4.34,-12.15,22.99,101015,-7.69,25,0,4,73,0,0
2792910,1,0,0,0,0,0,0,-53.15,51,38.6,9.34,-7.78,21.23,101020,-8.44,25,2,3,37,0,0
2792958,1,0,0,0,0,0,0,-54.67,52.31,37.4,7.41,-2.23,26.83,101020,-8.44,25,0,2,51,0,0
2793006,1,0,0,0,0,0,0,-57.3,53.86,35.64,12.34,-11.99,23.65,101012,-7.69,25,0,1,56,0,0
2793054,1,0,0,0,0,0,0,-59.45,54.71,34.62,6.23,-10.68,10.12,101015,-8.19,25,0,2,53,0,0
2793102,1,0,0,0,0,0,0,-61.44,54.95,34.29,2.16,-5.26,19.9,101022,-8.35,25,0,0,71,0,0
2793166,1,0,0,0,0,0,0,-63.51,54.18,34.86,-3.5,1.9,24.69,101022,-7.6,25,0,0,63,0,0
2793214,1,0,0,0,0,0,0,-66.17,53.29,35.44,-5.48,1.42,24.74,101023,-9.19,25,0,0,53,0,0
2793262,1,0,0,0,0,0,0,-70,52.71,35.53,-4.09,1.86,30.48,101025,-8.35,25,0,4,50,0,0
2793310,1,0,0,0,0,0,0,-71.87,52.16,35.87,-5.37,-2.8,25.46,101027,-8.19,25,0,1,54,0,0
2793358,1,0,0,0,0,0,0,-73.7,52.2,35.81,0.9,-11.45,25.87,101024,-8.19,25,0,2,51,0,0
2793406,1,0,0,0,0,0,0,-76.09,52.68,35.51,-2.49,-11.51,20.69,101011,-8.11,25,0,1,59,0,0
2793454,1,0,0,0,0,0,0,-78.02,52.34,36.24,-7.35,2.09,23.65,101023,-8.77,25,0,0,61,0,0
2793502,1,0,0,0,0,0,0,-80.17,51.21,37.5,-5.67,11.87,37.79,101017,-7.69,25,0,2,64,0,0
2793566,1,0,0,0,0,0,0,-80.95,49.71,38.88,2.25,10.89,39.98,101024,-8.69,25,0,2,93,0,0
2793614,1,0,0,0,0,0,0,-78.73,48.32,40.23,19.47,5.92,29.64,101027,-9.03,25,0,0,59,0,0
2793662,1,0,0,0,0,0,0,-75.27,47.56,40.99,8.66,-12.21,17.15,101024,-8.77,25,0,3,64,0,0
2793710,1,0,0,0,0,0,0,-74.09,47.48,40.83,5.6,-21.66,10.01,101015,-7.94,25,0,3,50,0,0
2793758,1,0,0,0,0,0,0,-72.47,47.34,41.2,11.38,-18.49,3.18,101021,-7.94,25,0,2,49,0,0
2793806,1,0,0,0,0,0,0,-70.16,47.46,41.57,16.57,-10.84,1.54,101024,-8.44,25,2,0,48,0,0
2793854,1,0,0,0,0,0,0,-68.69,47.28,42,9.98,-10.02,5,101017,-8.19,25,0,0,42,0,0
2793902,1,0,0,0,0,0,0,-67.59,47.11,42.36,14.5,-8.3,3.31,101009,-7.85,25,0,2,41,0,0
2793966,1,0,0,0,0,0,0,-68.85,47.05,42.51,14.02,-7.19,5.9,101018,-8.11,25,0,0,46,0,0
2794014,1,0,0,0,0,0,0,-72.49,47.2,42.4,8.03,-11.87,5.2,101017,-8.19,25,2,1,44,0,0
2794062,1,0,0,0,0,0,0,-79.23,47.34,42.36,6.91,-10.94,8.1,101017,-8.19,25,0,0,37,0,0
2794110,1,0,0,0,0,0,0,-97,47.45,42.38,6.06,-5.08,11.59,101018,-8.61,25,0,4,35,0,0
2794158,1,0,0,0,0,0,0,-156.95,47.78,42.13,6.12,-3.86,13.14,101024,-8.35,25,0,2,48,0,0
2794206,1,0,0,0,0,0,0,154.63,48.24,41.71,4.52,-4.7,14.98,101009,-8.11,25,0,0,49,0,0
2794254,1,0,0,0,0,0,0,140.63,48.82,41.16,5.33,-3.75,14.85,101024,-8.19,25,2,0,37,0,0
2794302,1,0,0,0,0,0,0,135.93,49.63,40.35,4.85,-3.6,10.07,101011,-8.44,25,0,2,35,0,0
2794367,1,0,0,0,0,0,0,137.42,49.72,40.23,5.88,-3.03,13.41,101018,-8.11,25,0,2,43,0,0
2794414,1,0,0,0,0,0,0,136.63,49.97,39.98,7.23,-7.1,12.91,101018,-8.11,25,0,2,48,0,0
2794462,1,0,0,0,0,0,0,134.92,50.49,39.47,8.99,-10.53,15.45,101024,-8.77,25,0,0,42,0,0
2794510,1,0,0,0,0,0,0,133.68,50.83,39.12,6.03,-4.92,18.13,101012,-7.36,25,2,0,43,0,0
2794558,1,0,0,0,0,0,0,133.3,51.03,38.91,4.63,-0.41,16.89,101012,-7.69,25,0,4,49,0,0
2794607,1,0,0,0,0,0,0,133.49,51.22,38.67,5.06,0.77,19.08,101011,-7.94,25,0,2,52,0,0
2794654,1,0,0,0,0,0,0,134.1,51.27,38.55,4.9,0.08,16.39,101018,-8.61,25,0,1,37,0,0
2794718,1,0,0,0,0,0,0,134.51,51.15,38.61,-0.3,0.84,17.03,101021,-7.44,25,1,1,32,0,0
2794766,1,0,0,0,0,0,0,136.04,50.73,38.86,4.06,-0.61,17.64,101012,-8.11,25,0,0,28,0,0
2794814,1,0,0,0,0,0,0,137.04,50.1,39.35,-1.13,3.69,15.76,101009,-7.44,25,0,0,37,0,0
2794863,1,0,0,0,0,0,0,138.93,49.09,40.22,1.3,4.48,14.24,101018,-8.44,25,1,0,39,0,0
2794910,1,0,0,0,0,0,0,141.61,48.03,41.02,8.43,-2.56,14.42,101012,-7.69,25,0,0,37,0,0
2794958,1,0,0,0,0,0,0,144.12,46.98,41.78,7.36,-13.5,9.58,101020,-8.11,25,0,4,29,0,0
2795006,1,0,0,0,0,0,0,146.58,46.37,41.95,14.26,-19.72,3.46,101023,-8.19,25,0,1,32,0,0
2795054,1,0,0,0,0,0,0,148.64,45.32,42.57,11.19,-11.26,5.83,101014,-7.69,25,0,0,26,0,0
2795118,1,0,0,0,0,0,0,149.85,44.27,43.4,10.88,-5.06,13.85,101017,-7.94,25,0,2,26,0,0
2795166,1,0,0,0,0,0,0,150.45,43.76,43.84,13.71,-5.46,14.28,101015,-7.85,25,0,3,28,0,0
2795214,1,0,0,0,0,0,0,151.66,43.81,43.52,9.89,-12.08,8.98,101025,-9.03,25,0,0,24,0,0
2795262,1,0,0,0,0,0,0,152.82,43.76,43.23,8.77,-13.09,6.69,101024,-8.19,25,0,4,23,0,0
2795310,1,0,0,0,0,0,0,152.54,44.29,42.79,12.57,-12.89,5.22,101015,-8.11,25,0,3,24,0,0
2795358,1,0,0,0,0,0,0,152.55,44.56,42.39,11.85,-4.78,10.86,101018,-8.19,25,0,1,20,0,0
2795406,1,0,0,0,0,0,0,152.16,44.78,42.16,10.61,-6.61,12.58,101011,-7.85,25,0,0,19,0,0
2795454,1,0,0,0,0,0,0,153.03,45.46,41.19,11.94,-12.03,8.24,101021,-7.85,25,0,3,24,0,0
2795518,1,0,0,0,0,0,0,153.54,45.35,40.95,2.24,-7.31,9.23,101012,-7.6,25,0,4,15,0,0
2795566,1,0,0,0,0,0,0,154.09,45.4,40.54,6.23,-6.63,5.89,101015,-8.11,25,0,5,19,0,0
2795614,1,0,0,0,0,0,0,154.95,45.74,39.6,7.07,-4.29,6.12,101015,-7.36,25,0,4,18,0,0
2795662,1,0,0,0,0,0,0,156.18,44.85,39.9,2.84,2.7,12.9,101015,-8.35,25,4,1,22,0,0
2795713,1,0,0,0,0,0,0,157.22,43.92,40.53,-3.92,3.93,8.75,101023,-8.61,25,0,0,24,0,0
2795758,1,0,0,0,0,0,0,158.55,43.57,40.61,-2.42,6.27,9.71,101018,-7.85,25,0,1,24,0,0
2795806,1,0,0,0,0,0,0,160.5,43.55,40.19,0.47,-0.41,11.08,101018,-7.94,25,0,1,20,0,0
2795854,1,0,0,0,0,0,0,162.2,43.65,39.81,1.17,-5.41,10.1,101021,-7.94,25,0,3,18,0,0
2795918,1,0,0,0,0,0,0,162.39,43.93,39.52,1.86,-4.33,9.76,101011,-7.69,25,0,4,20,0,0
2795966,1,0,0,0,0,0,0,160.35,44.78,39.27,-2.1,-0.34,8.49,101008,-7.94,25,0,1,24,0,0
2796014,1,0,0,0,0,0,0,157.81,45.8,39.02,2.68,5.97,13.86,101017,-7.94,25,0,4,13,0,0
2796062,1,0,0,0,0,0,0,156.8,47,38.27,14.3,1.18,12.27,101011,-7.27,25,0,0,19,0,0
2796110,1,0,0,0,0,0,0,155.46,47.48,37.85,5.84,2.35,15.11,101012,-7.1,25,2,1,21,0,0
2796158,1,0,0,0,0,0,0,157.87,47.04,37.6,0.36,-4.99,9.51,101015,-8.44,25.1,0,3,25,0,0
2796206,1,0,0,0,0,0,0,158.75,46.64,38.09,16.23,-1.24,6.72,101018,-8.44,25,0,3,18,0,0
2796270,1,0,0,0,0,0,0,155.99,47.39,38.21,33.92,-3.76,0.57,101021,-8.35,25.1,0,0,37,0,0
2796318,1,0,0,0,0,0,0,153.93,48.43,37.79,8.6,-11.73,0.24,101023,-9.03,25.1,0,4,45,0,0
2796366,1,0,0,0,0,0,0,150.69,49.23,38.05,5.45,-11.63,-3.71,101028,-8.61,25,0,3,45,0,0
2796414,1,0,0,0,0,0,0,145.3,49.76,38.59,17.86,-6.45,-2.32,101024,-8.61,25.1,1,0,48,0,0
2796462,1,0,0,0,0,0,0,142.08,49.56,39.3,8.96,-5.01,8.57,101026,-8.86,25.1,0,4,51,0,0
2796510,1,0,0,0,0,0,0,142.18,49.22,39.76,1.57,-8.71,4.14,101023,-8.61,25,0,3,36,0,0
2796559,1,0,0,0,0,0,0,141.45,49.08,40.1,6.35,-9.03,1.95,101023,-7.94,25.1,0,2,33,0,0
2796606,1,0,0,0,0,0,0,140.72,49.12,40.23,8.99,-12.29,3.41,101027,-8.44,25.1,0,1,32,0,0
2796670,1,0,0,0,0,0,0,140.43,49.23,40.15,7.35,-12.23,4.32,101023,-8.69,25.1,0,2,40,0,0
2796718,1,0,0,0,0,0,0,139.88,49.52,39.87,7.74,-8.89,3.55,101024,-8.61,25.1,0,1,48,0,0
2796766,1,0,0,0,0,0,0,139.76,49.9,39.39,6.64,-2.45,3.04,101028,-8.61,25.1,0,2,46,0,0
2796814,1,0,0,0,0,0,0,140.17,50.41,38.68,9.63,-0.64,6.74,101020,-8.44,25.1,0,4,41,0,0
2796862,1,0,0,0,0,0,0,139.47,50.99,38.01,6.6,-3.2,6.02,101021,-8.94,25.1,0,0,32,0,0
2796910,1,0,0,0,0,0,0,138.73,51.51,37.4,2.2,-1.5,7.03,101021,-8.94,25.1,0,0,24,0,0
2796958,1,0,0,0,0,0,0,138.26,51.85,36.95,0.21,2.42,7.14,101018,-8.44,25.1,0,2,25,0,0
2797006,1,0,0,0,0,0,0,138.19,51.96,36.71,-3.98,5.26,7.69,101021,-8.44,25.1,0,8,20,0,0
2797070,1,0,0,0,0,0,0,137.84,52.31,36.35,1.46,3.77,8.48,101023,-8.44,25.1,0,1,22,0,0
2797118,1,0,0,0,0,0,0,138.03,52.67,35.82,4.46,0.98,6.86,101024,-8.61,25.1,2,1,24,0,0
2797166,1,0,0,0,0,0,0,137.96,53.2,35.16,8.96,-1.74,5.22,101020,-8.61,25.1,0,1,23,0,0
