relative time stamp,Walking,Standing,Sitting,Going Upstairs,Going Downstairs,Going In Lift,annotation any activity,flic annotations,yaw,pitch,roll,acc_x,acc_y,acc_z,pressure[pa],altitude[m],temperature[c],sensor Back,stretch left,stretch right,switch left,switch right
2078,0,0,0,0,0,0,0,6,0.25,-1.48,2.05,1.00,-2.00,19.41,100728,15.90,22.50,101,0,35,0,1
2139,0,0,0,0,0,0,0,6,0.35,-1.43,2.12,0.66,-2.29,18.92,100728,15.56,22.50,100,0,34,0,1
2187,0,0,0,0,0,0,0,6,0.47,-1.44,2.20,0.96,-2.63,19.10,100724,15.81,22.50,111,0,28,0,1
2245,0,0,0,0,0,0,0,6,0.60,-1.45,2.31,1.03,-2.73,19.09,100733,15.81,22.50,107,0,27,0,1
2303,0,0,0,0,0,0,0,6,0.72,-1.50,2.40,1.25,-2.86,19.15,100728,15.90,22.50,105,0,27,0,1
2336,0,0,0,0,0,0,0,6,0.83,-1.51,2.48,1.29,-3.14,19.27,100728,16.06,22.50,97,0,22,0,1
2379,0,0,0,0,0,0,0,6,0.95,-1.50,2.55,1.31,-3.25,19.25,100739,15.14,22.50,100,0,38,0,1
2460,0,0,0,0,0,0,0,6,1.07,-1.52,2.63,1.57,-3.51,19.41,100736,15.81,22.50,99,0,37,0,1
2523,0,0,0,0,0,0,0,6,1.20,-1.51,2.71,1.48,-3.70,19.17,100740,15.31,22.50,98,0,40,0,1
2575,0,0,0,0,0,0,0,6,1.35,-1.55,2.83,1.54,-3.94,18.92,100727,16.15,22.50,99,0,41,0,1
2615,0,0,0,0,0,0,0,6,1.53,-1.66,3.03,1.70,-4.29,19.19,100723,16.23,22.50,102,0,45,0,1
2680,0,0,0,0,0,0,0,6,1.71,-1.72,3.26,2.00,-3.80,20.55,100728,16.48,22.50,98,0,40,0,1
2684,0,0,0,0,0,0,0,6,1.83,-1.62,3.28,1.89,-4.31,18.70,100724,16.48,22.50,108,0,35,0,1
2735,0,0,0,0,0,0,0,6,1.96,-1.69,3.38,2.00,-4.29,19.37,100728,16.40,22.60,110,0,34,0,1
2796,0,0,0,0,0,0,0,6,2.09,-1.74,3.46,2.06,-4.49,19.31,100727,16.15,22.50,96,0,34,0,1
2844,0,0,0,0,0,0,0,6,2.21,-1.79,3.54,2.18,-4.64,19.44,100726,15.90,22.50,88,0,32,0,1
2935,0,0,0,0,0,0,0,6,2.34,-1.83,3.62,2.17,-4.74,19.43,100727,15.56,22.50,85,0,34,0,1
2941,0,0,0,0,0,0,0,6,2.47,-1.87,3.69,2.23,-4.80,19.48,100734,16.06,22.50,87,0,30,0,1
3030,0,0,0,0,0,0,0,6,2.60,-1.92,3.76,2.37,-4.95,19.38,100728,16.40,22.50,82,0,25,0,1
3078,0,0,0,0,0,0,0,6,2.72,-1.96,3.82,2.33,-4.97,19.49,100721,16.65,21.60,79,0,22,0,1
3120,0,0,0,0,0,0,0,6,2.85,-2.00,3.89,2.43,-5.04,19.34,100444,40.03,22.60,85,0,24,0,1
3135,0,0,0,0,0,0,0,6,2.98,-2.04,3.95,2.47,-5.16,19.48,100724,16.65,22.60,88,0,25,0,1
3217,0,0,0,0,0,0,0,6,3.11,-2.07,4.00,2.50,-5.30,19.44,100733,15.98,22.60,91,0,30,0,1
3267,0,0,0,0,0,0,0,6,3.24,-2.11,4.06,2.59,-5.36,19.41,100730,15.56,22.60,90,0,35,0,1
3312,0,0,0,0,0,0,0,6,3.37,-2.14,4.10,2.59,-5.39,19.41,100729,16.40,22.50,82,0,38,0,1
3358,0,0,0,0,0,0,0,6,3.50,-2.17,4.15,2.70,-5.44,19.43,100723,16.23,22.60,75,0,34,0,1
3451,0,0,0,0,0,0,0,6,3.62,-2.20,4.20,2.77,-5.62,19.39,100729,15.39,22.60,84,0,34,0,1
3452,0,0,0,0,0,0,0,6,3.75,-2.22,4.24,2.88,-5.63,19.51,100730,16.15,22.60,89,0,31,0,1
3516,0,0,0,0,0,0,0,6,3.87,-2.25,4.29,2.81,-5.61,19.46,100731,15.81,22.60,95,0,26,0,1
3616,0,0,0,0,0,0,0,6,4.01,-2.27,4.32,2.88,-5.78,19.47,100727,16.23,22.60,96,0,31,0,1
3631,0,0,0,0,0,0,0,6,4.13,-2.29,4.36,2.90,-5.78,19.45,100726,16.23,22.60,94,0,24,0,1
3689,0,0,0,0,0,0,0,6,4.25,-2.32,4.39,2.89,-5.82,19.43,100721,16.48,22.60,87,0,22,0,1
3756,0,0,0,0,0,0,0,6,4.39,-2.34,4.43,2.93,-5.91,19.47,100724,16.40,22.60,77,0,31,0,1
3757,0,0,0,0,0,0,0,6,4.51,-2.36,4.46,3.00,-5.95,19.42,100730,15.64,22.60,79,0,29,0,1
3821,0,0,0,0,0,0,0,6,4.64,-2.38,4.49,3.05,-5.97,19.56,100721,16.98,22.60,91,0,33,0,1
3893,0,0,0,0,0,0,0,6,4.77,-2.40,4.52,3.03,-6.00,19.54,100731,16.48,22.60,89,0,31,0,1
3893,0,0,0,0,0,0,0,6,4.90,-2.42,4.55,3.08,-6.03,19.57,100729,16.23,22.60,93,0,30,0,1
3956,0,0,0,0,0,0,0,6,5.02,-2.44,4.58,3.08,-6.03,19.52,100727,16.23,22.60,103,0,30,0,1
4021,0,0,0,0,0,0,0,6,5.15,-2.46,4.60,3.15,-6.10,19.49,100729,15.98,22.60,101,0,31,0,1
4096,0,0,0,0,0,0,0,6,5.28,-2.47,4.63,3.18,-6.19,19.54,100729,16.15,22.60,90,0,31,0,1
4096,0,0,0,0,0,0,0,6,5.40,-2.48,4.65,3.19,-6.17,19.52,100730,16.23,22.60,82,0,30,0,1
4181,0,0,0,0,0,0,0,6,5.52,-2.50,4.67,3.23,-6.18,19.43,100721,16.90,22.60,92,0,26,0,1
4259,0,0,0,0,0,0,0,6,5.65,-2.51,4.70,3.14,-6.27,19.53,100726,16.73,22.60,98,0,31,0,1
4260,0,0,0,0,0,0,0,6,5.78,-2.53,4.71,3.20,-6.25,19.53,100717,16.73,22.60,93,0,23,0,1
4348,0,0,0,0,0,0,0,6,5.90,-2.54,4.73,3.21,-6.33,19.57,100724,16.65,22.60,93,0,25,0,1
4349,0,0,0,0,0,0,0,6,6.03,-2.56,4.75,3.33,-6.29,19.54,100726,16.73,22.60,90,0,27,0,1
4419,0,0,0,0,0,0,0,6,6.16,-2.57,4.77,3.20,-6.44,19.48,100724,16.40,22.60,95,0,24,0,1
4495,0,0,0,0,0,0,0,6,6.28,-2.58,4.78,3.36,-6.36,19.51,100727,15.98,22.60,67,0,25,0,1
4495,0,0,0,0,0,0,0,6,6.41,-2.58,4.79,3.31,-6.51,19.57,100723,16.48,22.60,55,0,24,0,1
4597,0,0,0,0,0,0,0,6,6.53,-2.59,4.80,3.32,-6.42,19.50,100723,16.65,22.60,41,0,22,0,1
4692,0,0,0,0,0,0,0,6,6.63,-2.57,4.81,3.31,-6.40,19.54,100730,15.64,22.60,42,0,21,0,1
4699,0,0,0,0,0,0,0,6,6.73,-2.54,4.82,3.31,-6.44,19.60,100729,16.23,22.60,44,0,27,0,1
4699,0,0,0,0,0,0,0,6,6.82,-2.49,4.84,3.39,-6.46,19.40,100731,15.98,22.60,35,0,88,0,1
4791,0,0,0,0,0,0,0,6,6.91,-2.45,4.87,3.02,-6.48,19.61,100730,15.98,22.60,41,0,82,0,1
4874,0,0,0,0,0,0,0,6,7.00,-2.41,4.89,3.81,-6.47,19.56,100734,15.90,22.60,34,0,74,0,1
4874,0,0,0,0,0,0,0,6,7.07,-2.37,4.92,2.85,-6.44,19.58,100734,15.98,22.60,47,0,68,0,1
4974,0,0,0,0,0,0,0,6,7.22,-2.40,4.91,3.48,-6.52,19.25,100729,15.56,22.60,44,0,61,0,1
4974,0,0,0,0,0,0,0,6,7.35,-2.43,4.94,3.25,-6.49,19.75,100729,15.98,22.60,47,0,70,0,1
5070,0,0,0,0,0,0,0,6,7.53,-2.50,4.93,3.45,-6.64,19.68,100726,15.98,22.60,44,0,74,0,1
5071,0,0,0,0,0,0,0,6,7.68,-2.54,4.95,3.56,-6.59,19.49,100723,16.23,22.60,53,0,51,0,1
5165,0,0,0,0,0,0,0,6,7.81,-2.55,4.95,3.46,-6.66,19.63,100730,15.98,22.60,56,0,45,0,1
5165,0,0,0,0,0,0,0,6,7.93,-2.55,4.94,3.52,-6.63,19.58,100727,16.65,22.60,56,0,38,0,1
5266,0,0,0,0,0,0,0,6,8.04,-2.53,4.93,3.50,-6.58,19.63,100730,15.98,22.60,56,0,37,0,1
5266,0,0,0,0,0,0,0,6,8.15,-2.52,4.92,3.51,-6.59,19.64,100720,16.15,22.60,74,0,32,0,1
5367,0,0,0,0,0,0,0,6,8.22,-2.48,4.88,3.68,-6.41,19.56,100718,16.98,22.60,70,0,71,0,1
5367,0,0,0,0,0,0,0,6,8.25,-2.38,4.83,3.27,-6.80,19.39,100726,16.23,22.60,74,0,70,0,1
5474,0,0,0,0,0,0,0,6,8.37,-2.39,4.83,3.23,-6.54,19.52,100723,16.15,22.60,84,0,70,0,1
5475,0,0,0,0,0,0,0,6,8.49,-2.40,4.84,3.41,-6.70,19.51,100721,15.81,22.60,84,0,74,0,1
5576,0,0,0,0,0,0,0,6,8.63,-2.42,4.85,3.57,-6.64,19.53,100730,15.81,22.60,73,0,76,0,1
5576,0,0,0,0,0,0,0,6,8.79,-2.44,4.86,3.45,-6.63,19.64,100737,15.14,22.60,59,0,68,0,1
5685,0,0,0,0,0,0,0,6,8.96,-2.50,4.88,3.67,-6.85,19.39,100731,15.98,22.60,50,0,66,0,1
5686,0,0,0,0,0,0,0,6,9.11,-2.54,4.91,3.65,-6.55,19.51,100733,15.90,22.60,57,0,63,0,1
5800,0,0,0,0,0,0,0,6,9.26,-2.58,4.93,3.50,-6.77,19.53,100730,16.40,22.60,68,0,55,0,1
5801,0,0,0,0,0,0,0,6,9.44,-2.61,4.94,3.62,-6.72,19.14,100726,16.23,22.60,63,0,50,0,1
5801,0,0,0,0,0,0,0,6,9.57,-2.61,4.96,3.74,-6.56,19.86,100733,15.73,22.60,66,0,27,0,1
5903,0,0,0,0,0,0,0,6,9.71,-2.63,4.98,3.67,-6.73,19.71,100729,15.98,22.60,64,0,25,0,1
5904,0,0,0,0,0,0,0,6,9.83,-2.61,5.00,3.65,-6.61,19.54,100724,16.65,22.60,91,0,34,0,1
6024,0,0,0,0,0,0,0,6,9.95,-2.59,5.01,3.62,-7.00,19.91,100724,15.90,22.60,208,0,24,0,1
6024,0,0,0,0,0,0,0,6,10.14,-2.51,5.00,3.66,-6.62,19.54,100732,16.23,22.60,313,0,25,0,1
6198,0,0,0,0,0,0,0,6,10.16,-2.64,4.87,4.70,-5.81,18.23,100723,16.40,22.60,331,0,37,1,1
6199,0,0,0,0,0,0,0,6,9.66,-2.40,4.76,5.65,-5.01,19.33,100732,15.56,22.60,351,0,34,0,1
6199,0,0,0,0,0,0,0,6,8.53,-2.03,3.99,3.48,-4.15,19.77,100727,15.90,22.60,300,0,36,0,1
6301,0,0,0,0,0,0,0,6,7.51,-1.68,3.44,0.44,-7.17,21.09,100727,16.23,22.60,238,0,34,0,1
6326,0,0,0,0,0,0,0,6,7.69,-1.32,3.05,1.98,-10.93,22.00,100726,16.23,22.60,188,0,34,0,1
6326,0,0,0,0,0,0,0,6,7.93,-0.55,1.99,2.76,-5.07,20.04,100733,16.40,22.60,182,0,32,0,1
6457,0,0,0,0,0,0,0,6,7.94,0.15,1.03,2.70,-6.00,16.45,100726,16.65,22.60,151,0,35,0,1
6460,0,0,0,0,0,0,0,6,8.00,0.49,0.83,3.22,-6.65,18.98,100730,15.98,22.60,153,0,136,0,1
6461,0,0,0,0,0,0,0,6,8.07,0.91,0.57,3.13,-6.97,19.86,100721,16.23,22.60,101,0,112,0,1
6594,0,0,0,0,0,0,0,6,8.16,1.45,0.10,3.07,-6.93,19.37,100729,16.23,22.60,23,0,159,0,1
6594,0,0,0,0,0,0,0,6,8.27,1.99,-0.27,3.13,-7.04,18.42,100726,16.15,22.60,36,0,146,0,1
6709,0,0,0,0,0,0,0,6,8.27,2.54,-0.62,3.61,-6.74,17.03,100720,16.98,22.60,84,0,151,0,1
6719,0,0,0,0,0,0,0,6,8.16,2.56,-0.67,2.69,-6.93,18.67,100720,16.15,22.60,49,0,59,0,1
6719,0,0,0,0,0,0,0,6,8.28,2.31,-0.39,3.15,-7.40,16.61,100727,16.65,22.60,36,0,111,0,1
6888,0,0,0,0,0,0,0,6,8.40,1.99,0.01,4.01,-7.69,19.29,100727,16.15,22.60,22,0,65,0,1
6890,0,0,0,0,0,0,0,6,8.52,1.89,0.23,3.72,-7.63,19.46,100726,16.15,22.60,16,0,63,0,1
6890,0,0,0,0,0,0,0,6,8.65,1.77,0.39,3.92,-7.66,19.12,100726,16.23,22.60,2,0,62,0,1
7050,0,0,0,0,0,0,0,6,8.77,1.75,0.45,3.77,-7.60,19.04,100717,16.48,22.60,0,0,45,0,1
7053,0,0,0,0,0,0,0,6,8.90,1.69,0.54,3.91,-7.64,18.65,100730,15.90,22.60,0,0,53,0,1
7054,0,0,0,0,0,0,0,6,9.01,1.62,0.65,3.86,-7.79,18.89,100729,16.65,22.60,1,0,53,0,1
7081,0,0,0,0,0,0,0,6,9.13,1.54,0.78,4.03,-7.76,18.79,100718,16.40,22.60,4,0,52,0,1
7227,0,0,0,0,0,0,0,6,9.25,1.43,0.92,3.96,-7.88,18.92,100729,15.73,22.60,2,0,32,0,1
7227,0,0,0,0,0,0,0,6,9.37,1.33,1.04,4.07,-7.85,18.96,100727,16.48,22.60,2,0,36,0,1
7227,0,0,0,0,0,0,0,6,9.49,1.25,1.13,4.02,-7.86,18.84,100727,15.98,22.60,1,0,157,0,1
7411,0,0,0,0,0,0,0,6,9.62,1.14,1.27,4.20,-8.00,18.73,100726,16.23,22.60,24,0,138,0,1
7411,0,0,0,0,0,0,0,6,9.74,1.06,1.37,4.45,-7.89,19.77,100737,15.73,22.60,137,0,52,0,1
7412,0,0,0,0,0,0,0,6,9.85,1.09,1.41,4.16,-8.00,18.83,100720,16.48,22.60,251,0,43,0,1
7510,0,0,0,0,0,0,0,6,9.96,1.54,1.16,5.09,-8.37,22.68,100729,16.15,22.60,301,0,144,0,1
7525,0,0,0,0,0,0,0,6,9.94,3.08,-0.10,7.27,-7.91,22.57,100724,16.90,22.60,356,0,72,0,1
7526,0,0,0,0,0,0,0,6,9.36,6.21,-2.64,15.16,-7.36,26.00,100736,15.90,22.60,375,0,133,0,1
7663,0,0,0,0,0,0,0,6,7.99,11.68,-5.71,27.65,-7.29,23.51,100721,16.65,22.60,377,0,90,0,1
7663,0,0,0,0,0,0,0,6,7.12,15.83,-9.73,20.62,-4.44,13.62,100723,16.40,173.70,351,0,53,0,1
7663,0,0,0,0,0,0,0,6,7.18,18.47,-12.24,6.94,-1.83,12.89,143092,-3045.11,22.60,332,0,123,0,1
7796,0,0,0,0,0,0,0,6,9.17,24.21,-15.29,-10.68,0.71,-5.51,100727,16.48,22.60,324,0,124,0,1
7796,0,0,0,0,0,0,0,6,8.57,23.24,-12.22,-22.50,-0.42,16.10,100724,16.65,22.60,326,0,119,0,1
7797,0,0,0,0,0,0,0,6,9.17,20.98,-9.62,-13.40,-13.21,26.58,100726,16.15,22.60,357,0,111,0,1
7965,0,0,0,0,0,0,0,6,9.85,20.22,-8.41,-10.59,-14.20,36.80,100721,16.23,22.60,392,0,119,0,1
7966,0,0,0,0,0,0,0,6,9.90,20.61,-9.38,1.95,-12.39,29.27,100721,16.48,22.60,410,0,111,0,1
8079,0,0,0,0,0,0,0,6,10.59,22.25,-12.01,19.74,-11.56,17.81,100726,16.90,22.60,431,0,111,0,1
8100,0,0,0,0,0,0,0,6,11.88,23.99,-16.09,14.01,-2.41,5.45,100729,15.90,22.60,441,0,107,0,1
8101,0,0,0,0,0,0,0,6,13.69,25.04,-18.92,5.03,-3.51,7.82,100724,16.23,22.60,453,0,98,0,1
8219,0,0,0,0,0,0,0,6,15.75,25.97,-20.08,4.40,-9.75,12.45,100727,16.40,22.60,452,0,88,0,1
8240,0,0,0,0,0,0,0,6,18.16,27.15,-21.62,3.05,-10.76,14.69,100726,15.90,22.60,444,0,103,0,1
8242,0,0,0,0,0,0,0,6,20.97,29.45,-23.52,1.49,-9.32,20.73,100724,16.15,22.60,430,0,91,0,1
8388,0,0,0,0,0,0,0,6,24.55,33.63,-25.77,5.89,-11.19,29.91,100727,16.23,22.60,439,0,76,0,1
8390,0,0,0,0,0,0,0,6,30.12,39.93,-29.51,10.58,-13.56,28.64,100726,16.15,22.60,430,0,93,0,1
8391,0,0,0,0,0,0,0,6,37.09,44.57,-33.48,6.58,-7.48,17.77,100726,16.23,22.60,429,0,134,0,1
8549,0,0,0,0,0,0,0,6,42.90,48.32,-35.03,3.15,-9.23,19.45,100724,16.23,22.60,418,0,75,0,1
8549,0,0,0,0,0,0,0,6,46.80,50.91,-33.86,0.27,-5.48,2.71,100720,16.73,22.60,407,0,79,0,1
8550,0,0,0,0,0,0,0,6,49.09,52.48,-30.69,-3.85,-2.76,2.69,100719,16.65,22.60,409,0,85,0,1
8550,0,0,0,0,0,0,0,6,51.69,53.94,-27.51,-1.12,-11.57,5.50,100724,16.48,22.60,422,0,83,0,1
8690,0,0,0,0,0,0,0,6,53.89,55.06,-25.99,-5.61,-9.98,11.19,100720,17.07,22.60,399,0,9,1,1
8795,0,0,0,0,0,0,0,6,56.24,56.52,-25.99,-1.41,-8.97,9.21,100721,16.23,22.60,413,0,72,1,1
8798,0,0,0,0,0,0,0,6,57.67,57.77,-25.46,-0.11,-10.70,3.35,100719,16.65,22.60,420,0,128,1,1
8799,0,0,0,0,0,0,0,6,59.14,58.99,-23.33,-1.19,-11.88,6.82,100724,16.40,22.70,416,0,129,1,1
8800,0,0,0,0,0,0,0,6,60.89,60.44,-20.64,-3.21,-11.03,5.57,100732,16.15,22.70,437,0,96,1,1
8932,0,0,0,0,0,0,0,6,62.75,61.61,-18.47,-1.06,-11.64,2.66,100732,15.90,22.60,449,0,117,1,1
8933,0,0,0,0,0,0,0,6,64.64,62.81,-16.44,3.46,-11.15,-0.31,100726,16.48,22.60,451,0,113,1,1
9049,0,0,0,0,0,0,0,6,66.17,63.92,-13.31,1.82,-10.15,6.16,100720,16.40,22.70,471,0,143,0,1
9050,0,0,0,0,0,0,0,6,69.44,64.52,-11.61,5.02,-6.98,-5.92,100729,15.64,22.70,467,0,71,0,1
9170,0,0,0,0,0,0,0,6,72.00,64.33,-10.16,4.23,-3.24,-2.63,100729,15.73,22.70,466,0,132,0,1
9170,0,0,0,0,0,0,0,6,73.34,63.24,-10.28,-0.79,3.48,1.19,100735,15.64,22.70,470,0,95,0,1
9171,0,0,0,0,0,0,0,6,72.91,61.17,-12.13,0.96,7.18,3.60,100735,15.64,22.70,457,0,231,0,1
9299,0,0,0,0,0,0,0,6,71.57,58.58,-14.98,9.52,8.30,6.92,100733,15.73,22.70,465,0,180,0,1
9300,0,0,0,0,0,0,0,6,70.66,56.39,-18.58,15.30,5.81,7.96,100732,15.90,22.70,464,0,1,0,1
9300,0,0,0,0,0,0,0,6,71.38,55.76,-20.51,3.84,9.15,6.47,100727,16.15,22.70,440,0,0,0,1
9451,0,0,0,0,0,0,0,6,73.21,55.80,-20.64,-3.72,9.02,1.46,100733,15.90,22.70,411,0,62,0,1
9451,0,0,0,0,0,0,0,6,75.42,56.22,-19.92,1.06,6.64,5.04,100733,15.64,22.70,413,0,72,0,1
9581,0,0,0,0,0,0,0,6,77.32,56.69,-19.76,-2.63,12.04,2.72,100727,16.23,22.70,425,0,77,0,1
9586,0,0,0,0,0,0,0,6,77.20,56.32,-21.42,3.30,8.64,-3.79,100730,15.98,22.70,443,0,136,0,0
9587,0,0,0,0,0,0,0,6,76.39,55.07,-23.51,13.81,1.62,-0.94,100723,16.15,22.70,444,0,121,0,0
9727,0,0,0,0,0,0,0,6,76.44,54.42,-25.01,27.19,7.26,2.38,100733,15.64,22.70,447,0,116,0,0
9727,0,0,0,0,0,0,0,6,76.37,54.67,-26.36,22.15,13.58,7.93,100723,15.90,22.70,431,0,134,0,0
9728,0,0,0,0,0,0,0,6,75.63,54.26,-28.96,13.59,20.50,13.34,100723,16.40,22.70,418,0,112,0,0
9862,0,0,0,0,0,0,0,6,73.51,53.89,-31.93,7.23,23.79,14.98,100724,16.15,22.70,410,0,102,0,1
9862,0,0,0,0,0,0,0,6,71.22,53.17,-34.18,9.56,22.95,5.19,100732,15.98,22.70,399,0,96,0,1
10011,0,0,0,0,0,0,0,6,69.53,52.81,-35.39,9.93,19.75,13.95,100730,15.64,22.70,389,0,96,0,1
10024,0,0,0,0,0,0,0,6,65.48,53.22,-36.13,12.04,26.44,17.41,100737,15.39,22.70,395,0,10,0,1
10024,0,0,0,0,0,0,0,6,59.72,53.61,-36.24,-7.52,11.82,-13.17,100724,15.98,22.70,398,0,52,0,1
10024,0,0,0,0,0,0,0,6,67.11,57.48,-31.68,-3.40,8.18,-37.85,100726,16.15,22.70,400,0,100,0,1
10154,0,0,0,0,0,0,0,6,71.23,61.92,-26.65,3.91,0.40,-7.99,100730,15.73,22.70,413,0,5,0,1
10154,0,0,0,0,0,0,0,6,68.85,63.13,-26.30,28.04,-19.99,14.68,100732,15.90,22.70,414,0,5,0,1
10263,0,0,0,0,0,0,0,6,48.91,58.01,-31.21,25.49,-34.25,6.53,100726,15.64,22.70,417,0,3,0,1
10273,0,0,0,0,0,0,0,6,10.13,49.90,-34.76,21.52,-5.39,15.13,100732,15.90,22.70,420,0,7,0,1
10273,0,0,0,0,0,0,0,6,-34.96,41.41,-35.17,2.68,17.62,33.42,100729,16.40,22.70,418,0,8,0,1
10404,0,0,0,0,0,0,0,6,-53.29,35.28,-32.12,7.96,4.52,23.55,100732,15.64,22.70,418,0,1,0,1
10404,0,0,0,0,0,0,0,6,-56.71,35.18,-29.79,15.60,-6.68,40.40,100729,15.73,22.70,425,0,5,0,1
10512,0,0,0,0,0,0,0,6,-55.81,36.36,-25.60,23.59,-4.22,26.80,100723,15.90,22.70,429,0,10,0,1
10531,0,0,0,0,0,0,0,6,-55.67,35.36,-22.41,26.55,10.56,16.39,100727,16.48,22.70,423,0,0,0,1
10532,0,0,0,0,0,0,0,6,-57.30,33.04,-23.24,10.25,22.11,20.13,100729,15.98,22.70,424,0,7,0,1
10662,0,0,0,0,0,0,0,6,-59.41,31.20,-26.65,-2.14,25.44,23.11,100723,15.98,22.70,416,0,0,0,1
10663,0,0,0,0,0,0,0,6,-61.96,30.78,-28.91,-3.94,24.33,20.76,100723,15.90,22.70,395,0,25,0,1
10663,0,0,0,0,0,0,0,6,-64.56,32.01,-28.38,-8.31,17.90,17.10,100727,15.31,22.70,388,0,63,0,1
10850,0,0,0,0,0,0,0,6,-64.89,33.06,-26.11,1.26,13.35,17.95,100736,15.64,22.70,421,0,13,0,0
10850,0,0,0,0,0,0,0,6,-63.67,33.20,-22.32,2.03,11.76,20.45,100730,15.14,22.70,400,0,39,0,0
10851,0,0,0,0,0,0,0,6,-62.31,33.43,-20.28,2.75,14.20,20.38,100726,16.48,22.70,411,4,122,0,0
10851,0,0,0,0,0,0,0,6,-62.23,33.29,-20.34,7.32,16.50,22.03,100727,16.98,22.70,392,1,63,0,0
10994,0,0,0,0,0,0,0,6,-63.75,33.42,-20.03,1.43,14.59,19.17,100730,16.23,22.70,382,0,52,0,0
10994,0,0,0,0,0,0,0,6,-65.23,34.20,-19.84,-2.94,12.77,20.34,100724,16.23,22.70,375,0,103,0,0
11107,0,0,0,0,0,0,0,6,-66.32,35.18,-19.14,-7.33,11.90,21.49,100724,16.23,22.70,388,0,80,0,0
11108,0,0,0,0,0,0,0,6,-67.12,36.65,-18.53,-12.09,12.06,21.05,100726,16.23,22.70,405,3,68,0,0
11206,0,0,0,0,0,0,0,6,-68.20,39.03,-18.04,-12.96,9.25,17.43,100723,16.23,22.70,384,1,67,0,0
11211,0,0,0,0,0,0,0,6,-69.24,41.17,-17.93,-13.29,10.78,22.71,100723,16.56,22.70,395,0,84,0,0
11212,0,0,0,0,0,0,0,6,-70.19,42.55,-17.31,-16.21,11.63,30.49,100727,16.40,22.70,381,0,84,0,0
11358,0,0,0,0,0,0,0,6,-70.65,42.29,-16.81,-5.08,12.42,33.95,100729,16.23,22.70,384,0,47,0,0
11360,0,0,0,0,0,0,0,6,-71.72,41.52,-16.70,8.51,13.75,34.98,100724,16.56,22.70,379,0,59,0,0
11508,0,0,0,0,0,0,0,6,-73.27,42.63,-17.29,33.58,20.68,22.23,100722,16.73,22.70,347,0,4,0,0
11516,0,0,0,0,0,0,0,6,-74.88,44.05,-23.24,13.63,16.45,10.93,100729,16.23,22.70,342,0,18,0,0
11517,0,0,0,0,0,0,0,6,-69.91,45.64,-29.90,10.22,19.40,6.48,100722,16.82,22.70,329,0,4,0,0
11517,0,0,0,0,0,0,0,6,-63.64,48.37,-34.87,4.26,11.98,-3.85,100723,16.48,22.70,319,0,128,0,0
11653,0,0,0,0,0,0,0,6,-50.96,51.66,-35.53,-14.77,0.21,-8.97,100724,16.40,22.70,333,1,171,0,0
11653,0,0,0,0,0,0,0,6,-25.38,53.74,-34.31,-22.84,15.58,3.43,100722,16.56,22.70,357,0,80,0,0
11653,0,0,0,0,0,0,0,6,-1.22,54.34,-34.85,-20.00,11.68,-12.30,100722,16.40,22.70,351,0,18,0,0
11780,0,0,0,0,0,0,0,6,47.89,56.85,-33.14,-13.70,1.12,-15.60,100726,15.98,22.70,323,0,0,0,0
11781,0,0,0,0,0,0,0,6,99.32,62.70,-26.74,5.46,-12.74,13.70,100724,16.40,22.70,295,0,8,0,0
11906,0,0,0,0,0,0,0,6,73.38,69.05,-20.94,18.21,-14.85,12.18,100723,16.40,22.70,373,0,59,0,0
11906,0,0,0,0,0,0,0,6,64.36,71.43,-18.51,23.20,-30.64,-16.54,100724,16.40,22.70,386,0,34,0,0
11907,0,0,0,0,0,0,0,6,72.59,72.43,-17.57,5.82,-22.25,-7.70,100730,16.15,22.70,377,0,93,0,0
12066,0,0,0,0,0,0,0,6,76.19,70.58,-19.35,-2.45,-20.92,-28.04,100729,16.23,22.70,344,0,64,0,0
12068,0,0,0,0,0,0,0,6,82.55,66.40,-23.28,-12.27,-11.26,-15.80,100726,15.98,22.70,363,0,62,0,0
12229,0,0,0,0,0,0,0,6,84.26,64.29,-25.48,-2.69,-12.38,-16.58,100732,16.40,22.70,358,0,36,0,0
12236,0,0,0,0,0,0,0,6,73.68,63.89,-26.06,0.20,-4.92,0.36,100727,16.15,22.70,344,0,40,0,0
12236,0,0,0,0,0,0,0,6,55.21,62.56,-27.41,-2.89,-0.08,-2.46,100730,15.64,22.70,330,2,48,0,0
12236,0,0,0,0,0,0,0,6,56.62,61.27,-28.71,-2.24,4.80,-2.51,100735,15.48,22.70,294,2,68,0,0
12407,0,0,0,0,0,0,0,6,56.94,61.00,-28.99,-2.36,2.47,-0.33,100733,15.39,22.70,291,0,65,0,0
12407,0,0,0,0,0,0,0,6,55.24,61.37,-28.58,-2.13,1.28,3.67,100732,15.98,22.70,275,0,71,0,0
12408,0,0,0,0,0,0,0,6,54.42,60.93,-29.02,-8.32,-3.15,2.34,100727,16.40,22.80,183,0,76,0,0
12408,0,0,0,0,0,0,0,6,58.14,59.31,-30.69,-10.22,-3.37,2.37,100736,15.73,22.70,136,2,68,0,0
12539,0,0,0,0,0,0,0,6,61.57,57.16,-32.83,-9.59,-5.11,-0.51,100727,16.15,22.70,110,0,72,0,0
12648,0,0,0,0,0,0,0,6,55.19,55.61,-34.39,-2.69,-0.55,-1.70,100729,15.14,22.70,159,0,69,0,0
12652,0,0,0,0,0,0,0,6,31.77,54.22,-35.64,2.98,3.75,1.84,100736,16.23,22.80,127,0,78,0,1
12652,0,0,0,0,0,0,0,6,14.18,54.52,-34.95,3.94,6.77,2.30,100730,16.15,22.70,102,0,72,0,1
12655,0,0,0,0,0,0,0,6,17.94,56.44,-33.05,1.14,4.64,3.70,100729,16.15,22.70,97,0,80,0,1
12828,0,0,0,0,0,0,0,6,16.30,56.62,-32.69,-7.18,4.45,13.35,100726,16.15,22.80,103,0,83,0,0
12828,0,0,0,0,0,0,0,6,8.48,56.26,-32.31,-13.55,-0.49,11.66,100732,15.98,22.70,30,0,77,0,0
12828,0,0,0,0,0,0,0,6,4.86,57.43,-30.84,-22.92,1.09,9.59,100730,15.48,22.80,0,2,77,0,0
12973,0,0,0,0,0,0,0,6,1.41,58.90,-29.27,-22.91,1.15,4.83,100735,15.98,22.80,0,0,78,0,0
12973,0,0,0,0,0,0,0,6,2.54,58.86,-28.98,-13.75,-0.51,-4.65,100733,15.73,22.80,0,0,79,0,0
12974,0,0,0,0,0,0,0,6,14.33,57.35,-31.26,6.54,1.60,-29.65,100726,16.23,22.80,0,0,67,0,0
13102,0,0,0,0,0,0,0,6,50.88,54.86,-35.13,37.11,-5.63,-35.61,100732,15.73,22.80,0,0,109,0,0
13103,0,0,0,0,0,0,0,6,73.45,51.00,-38.79,30.94,-16.22,-13.57,100729,16.48,22.80,0,0,87,0,0
13227,0,0,0,0,0,0,0,6,65.60,49.30,-40.66,4.61,1.79,7.76,100733,15.64,22.80,0,0,83,0,0
13227,0,0,0,0,0,0,0,6,-1.49,47.45,-42.42,-17.19,18.78,9.48,100726,16.23,22.80,0,0,32,0,0
13228,0,0,0,0,0,0,0,6,-24.53,46.31,-43.25,-12.34,19.51,-9.52,100733,15.39,22.80,2,0,27,0,0
13389,0,0,0,0,0,0,0,6,-21.22,45.84,-43.96,-13.02,15.11,-11.91,100732,15.64,22.80,0,0,73,0,0
13390,0,0,0,0,0,0,0,6,8.77,47.00,-42.97,-0.60,-0.78,-6.59,100736,15.39,22.80,0,0,51,0,0
13390,0,0,0,0,0,0,0,6,-19.51,48.34,-41.30,-2.30,0.21,0.55,100736,15.39,22.80,0,0,48,0,0
13593,0,0,0,0,0,0,0,6,-20.61,49.39,-39.44,9.98,-3.56,5.76,100736,15.48,22.80,0,0,101,0,0
13594,0,0,0,0,0,0,0,6,-16.09,50.26,-38.03,7.98,-7.62,12.09,100732,15.90,22.80,1,0,88,0,0
13594,0,0,0,0,0,0,0,6,-10.42,52.26,-36.30,8.08,-16.48,-4.31,100733,15.48,22.80,7,0,78,0,0
13595,0,0,0,0,0,0,0,6,19.29,54.79,-34.81,1.32,-11.88,-4.30,100732,16.40,22.80,12,0,75,0,0
13723,0,0,0,0,0,0,0,6,53.15,56.57,-33.42,3.68,-8.45,-6.30,100736,15.90,22.80,8,0,79,0,0
13729,0,0,0,0,0,0,0,6,73.82,57.07,-32.72,-1.21,-6.58,-13.05,100743,15.98,22.80,4,2,75,0,0
13729,0,0,0,0,0,0,0,6,80.88,56.46,-32.81,-11.84,-2.72,-11.75,100735,15.64,22.80,4,0,88,0,0
13858,0,0,0,0,0,0,0,6,84.75,56.01,-32.65,-11.63,-0.25,-24.33,100733,15.90,22.80,9,0,112,0,0
13858,0,0,0,0,0,0,0,6,86.16,55.08,-32.77,-13.95,12.95,-14.48,100733,15.90,22.80,10,0,95,0,0
13967,0,0,0,0,0,0,0,6,81.27,55.46,-32.88,-10.24,3.03,-2.39,100729,15.98,22.80,16,2,67,0,0
13972,0,0,0,0,0,0,0,6,71.19,59.24,-30.31,-0.88,-9.22,7.32,100729,15.48,22.80,12,0,97,0,0
13973,0,0,0,0,0,0,0,6,59.93,63.47,-26.47,3.71,-16.51,3.80,100730,15.90,22.80,12,0,77,0,0
14098,0,0,0,0,0,0,0,6,58.50,65.37,-24.30,-6.42,-10.28,2.57,100727,16.15,22.80,12,0,71,0,0
14098,0,0,0,0,0,0,0,6,62.91,65.38,-24.58,-18.16,-8.91,4.21,100733,15.90,22.80,7,0,54,0,0
14234,0,0,0,0,0,0,0,6,71.08,64.47,-25.29,-16.64,-14.42,-3.56,100729,15.98,22.80,12,0,79,0,0
14235,0,0,0,0,0,0,0,6,76.30,64.01,-25.01,-5.62,-17.11,-14.83,100733,15.73,22.80,10,1,87,0,0
14235,0,0,0,0,0,0,0,6,79.03,65.08,-23.00,1.42,-10.06,-28.34,100727,15.64,22.80,7,0,80,0,0
14377,0,0,0,0,0,0,0,6,81.64,65.96,-19.69,-7.09,-0.27,-21.72,100741,15.48,22.80,0,0,45,0,0
14378,0,0,0,0,0,0,0,6,84.06,65.96,-16.47,-5.50,-10.47,-20.53,100735,15.73,22.80,4,1,83,0,0
14378,0,0,0,0,0,0,0,6,85.07,64.79,-15.02,7.88,-29.18,-14.61,100733,15.90,22.80,0,0,62,0,0
14506,0,0,0,0,0,0,0,6,81.46,67.29,-16.22,-1.07,-19.47,5.24,100727,15.73,22.80,3,0,76,0,0
14506,0,0,0,0,0,0,0,6,79.96,67.43,-17.60,-13.72,-13.70,1.12,100725,15.90,22.80,0,0,60,0,0
14627,0,0,0,0,0,0,0,6,79.37,66.11,-19.29,-18.73,-15.51,-0.52,100735,15.48,22.80,0,0,11,0,0
14642,0,0,0,0,0,0,0,6,79.62,63.72,-20.90,-27.79,-8.73,2.72,100735,15.48,22.80,0,0,38,0,0
14643,0,0,0,0,0,0,0,6,78.58,59.56,-24.03,-32.82,-1.53,0.95,100730,15.48,22.80,0,0,77,0,0
14782,0,0,0,0,0,0,0,6,74.51,53.00,-29.69,-40.51,9.00,-1.66,100733,15.22,22.80,0,4,59,0,0
14783,0,0,0,0,0,0,0,6,67.52,43.64,-37.46,-42.17,13.94,-4.70,100732,15.73,22.80,0,0,44,0,0
14784,0,0,0,0,0,0,0,6,62.71,33.18,-42.66,-25.04,-11.47,-6.96,100732,15.73,22.80,0,0,24,0,0
14917,0,0,0,0,0,0,0,6,61.30,30.15,-43.92,0.70,-21.27,29.84,100730,16.15,22.80,0,0,23,0,0
14918,0,0,0,0,0,0,0,6,57.62,36.05,-46.75,13.64,-49.71,-36.87,100732,15.90,22.80,0,0,31,1,0
14919,0,0,0,0,0,0,0,6,76.56,44.67,-38.45,55.65,-84.80,16.51,100735,15.64,22.80,0,0,51,0,0
15057,0,0,0,0,0,0,0,6,80.70,53.31,-33.19,61.36,-48.16,-14.02,100736,15.48,22.80,0,0,44,0,0
15060,0,0,0,0,0,0,0,6,73.23,56.41,-32.99,16.02,-14.66,-7.04,100732,15.98,22.80,0,0,44,0,0
15206,0,0,0,0,0,0,0,6,52.18,57.97,-32.02,6.59,-8.56,10.17,100733,15.39,22.80,0,0,44,0,0
15211,0,0,0,0,0,0,0,6,-87.52,58.67,-30.58,-1.98,0.60,9.24,100730,15.90,22.80,2,0,41,0,0
15212,0,0,0,0,0,0,0,6,-95.34,58.45,-29.88,-11.46,8.36,10.32,100738,15.48,22.80,0,0,44,0,0
15214,0,0,0,0,0,0,0,6,-96.95,58.38,-28.92,-11.96,13.89,22.17,100745,15.14,22.80,0,0,46,0,0
15352,0,0,0,0,0,0,0,6,-92.61,57.50,-26.98,-12.46,14.01,29.06,100739,15.48,22.80,0,0,38,0,0
15352,0,0,0,0,0,0,0,6,-88.47,56.43,-25.42,-17.64,17.58,25.58,100735,15.64,22.80,0,0,46,0,0
15492,0,0,0,0,0,0,0,6,-86.20,56.16,-25.59,-11.54,18.09,18.90,100723,15.90,22.80,0,2,3,0,0
15495,0,0,0,0,0,0,0,6,-87.11,57.61,-27.56,5.47,17.65,9.80,100738,15.64,22.80,0,2,41,0,0
15495,0,0,0,0,0,0,0,6,-94.34,60.35,-28.73,17.19,21.16,10.09,100738,15.14,22.80,0,2,39,0,0
15612,0,0,0,0,0,0,0,6,-113.14,62.73,-27.26,13.32,14.64,0.21,100736,15.39,22.80,0,0,32,0,0
15613,0,0,0,0,0,0,0,6,-139.21,64.31,-25.51,-1.43,10.69,2.49,100741,15.14,22.80,0,0,31,0,0
15613,0,0,0,0,0,0,0,6,179.29,64.70,-24.70,-21.87,6.31,11.52,100729,15.64,22.80,0,0,39,0,0
15752,0,0,0,0,0,0,0,6,119.59,65.23,-23.58,-22.92,-2.53,13.30,100732,15.39,22.80,7,0,24,0,0
15752,0,0,0,0,0,0,0,6,100.94,67.00,-18.06,3.66,-9.46,21.19,100728,15.39,22.80,0,0,26,0,0
15880,0,0,0,0,0,0,0,6,102.76,67.09,-6.30,30.55,-28.22,22.90,100733,15.48,22.80,0,0,25,0,1
15882,0,0,0,0,0,0,0,6,104.94,61.93,3.56,27.01,-39.22,41.17,100741,14.81,22.80,0,0,94,0,1
15882,0,0,0,0,0,0,0,6,108.52,57.49,7.86,39.47,-45.39,35.88,100738,15.22,22.80,8,0,98,1,1
16022,0,0,0,0,0,0,0,6,114.70,52.01,8.18,31.73,-36.47,5.15,100733,15.90,22.80,13,0,76,1,1
16023,0,0,0,0,0,0,0,6,117.33,47.96,9.28,25.11,-28.97,-9.51,100736,15.39,22.80,0,0,68,1,1
16023,0,0,0,0,0,0,0,6,116.38,45.85,10.84,23.13,-42.98,-18.47,100732,15.64,22.80,0,0,51,1,1
16168,0,0,0,0,0,0,0,6,114.76,44.66,12.85,6.51,-50.76,-15.14,100733,15.73,22.80,0,0,42,1,0
16168,0,0,0,0,0,0,0,6,112.89,44.63,14.00,-2.46,-50.41,-14.93,100738,15.73,22.80,0,0,0,1,0
16168,0,0,0,0,0,0,0,6,111.73,45.49,15.04,-5.71,-48.96,-15.73,100738,15.64,22.80,4,0,0,1,0
16291,0,0,0,0,0,0,0,6,110.80,47.04,15.85,-3.95,-40.96,-10.47,100736,16.06,22.80,0,0,0,1,0
16292,0,0,0,0,0,0,0,6,107.87,50.64,12.93,-6.41,-27.81,-1.78,100735,15.64,22.80,0,0,0,1,0
16407,0,0,0,0,0,0,0,6,103.41,54.48,6.83,-1.15,-26.69,-0.74,100732,15.98,22.80,0,0,0,1,0
16408,0,0,0,0,0,0,0,6,97.23,57.72,-0.10,7.79,-12.64,-0.54,100733,15.39,22.80,0,0,0,1,1
16523,0,0,0,0,0,0,0,6,89.76,59.96,-7.69,2.84,-18.15,6.33,100728,15.90,22.80,0,0,0,0,1
16523,0,0,0,0,0,0,0,6,84.46,59.78,-12.13,7.87,-22.38,21.62,100729,15.64,22.80,0,0,0,1,1
16523,0,0,0,0,0,0,0,6,82.17,60.09,-14.44,0.55,-28.84,33.36,100728,15.64,22.80,0,0,137,0,1
16642,0,0,0,0,0,0,0,6,84.28,60.66,-13.24,-0.56,-39.65,34.44,100732,15.64,22.80,0,0,158,0,1
16642,0,0,0,0,0,0,0,6,86.71,63.61,-12.28,6.16,-22.56,28.11,100738,15.73,22.80,9,0,103,0,1
16766,0,0,0,0,0,0,0,6,86.63,65.09,-12.94,25.64,3.76,-27.17,100738,15.90,22.80,11,0,79,0,0
16767,0,0,0,0,0,0,0,6,82.36,65.82,-17.03,13.78,33.24,-1.39,100733,15.48,22.80,6,0,67,0,0
16767,0,0,0,0,0,0,0,6,74.43,65.51,-23.25,22.14,51.73,11.08,100729,15.48,22.80,0,0,114,0,0
16922,0,0,0,0,0,0,0,6,61.26,61.86,-28.14,12.66,33.37,-25.82,100736,15.48,22.80,9,0,146,0,0
16922,0,0,0,0,0,0,0,6,66.81,56.26,-33.54,6.67,15.23,-13.12,100739,15.64,22.80,18,2,149,0,0
16923,0,0,0,0,0,0,0,6,77.61,51.40,-37.98,16.49,-4.40,-17.54,100735,15.90,22.80,38,2,118,0,0
17053,0,0,0,0,0,0,0,6,89.74,50.15,-37.41,13.01,-17.56,-12.97,100730,15.90,22.80,30,0,28,0,0
17054,0,0,0,0,0,0,0,6,96.10,48.85,-34.27,-7.25,-14.79,7.87,100729,15.98,22.80,24,0,21,0,0
17054,0,0,0,0,0,0,0,6,93.56,47.45,-35.13,-15.94,-12.33,26.33,100729,15.90,22.80,0,0,47,0,0
17200,0,0,0,0,0,0,0,6,80.38,48.26,-39.04,-15.71,-12.22,31.62,100726,15.73,22.80,0,0,12,0,0
17201,0,0,0,0,0,0,0,6,64.69,51.59,-37.98,-7.75,-33.84,15.31,100733,15.90,22.80,0,0,54,1,0
17336,0,0,0,0,0,0,0,6,71.32,62.02,-27.66,24.11,-25.10,5.18,100729,15.73,22.80,0,0,220,1,0
17336,0,0,0,0,0,0,0,6,67.01,71.84,-17.95,35.49,17.95,11.93,100729,15.73,22.80,0,0,175,1,0
17337,0,0,0,0,0,0,0,6,69.30,76.68,-12.58,15.09,37.94,-0.24,100735,15.98,22.80,0,0,35,1,0
17474,0,0,0,0,0,0,0,6,71.67,79.10,-10.48,7.25,25.00,5.31,100732,15.73,22.90,0,0,98,1,0
17475,0,0,0,0,0,0,0,6,83.53,78.41,-11.51,-1.68,0.21,-15.71,100738,15.14,22.80,0,0,66,1,0
17475,0,0,0,0,0,0,0,6,107.27,74.34,-12.08,-2.21,-6.28,-31.11,100729,15.64,22.80,0,0,42,1,0
17602,0,0,0,0,0,0,0,6,112.21,70.26,-10.44,-10.06,-9.00,-28.76,100739,15.64,22.90,0,0,49,1,0
17711,0,0,0,0,0,0,0,6,111.75,68.64,-7.84,-7.12,-17.14,-19.77,100739,15.22,22.90,0,0,73,1,0
17715,0,0,0,0,0,0,0,6,110.39,70.55,-5.42,9.83,-16.51,-11.33,100738,15.64,22.90,0,0,68,1,0
17715,0,0,0,0,0,0,0,6,115.11,69.69,-6.16,12.45,-4.90,-18.27,100733,15.48,22.90,0,0,65,1,0
17716,0,0,0,0,0,0,0,6,119.20,66.99,-6.81,-4.53,-3.66,-22.41,100733,15.90,22.90,0,0,67,1,0
17857,0,0,0,0,0,0,0,6,121.79,65.80,-5.52,-10.67,-5.07,-23.20,100732,15.90,22.90,0,0,85,1,0
17859,0,0,0,0,0,0,0,6,121.84,66.31,-3.92,-9.18,-3.46,-17.49,100736,15.98,22.90,0,0,183,1,1
18007,0,0,0,0,0,0,0,6,118.89,67.21,-2.52,-21.35,-3.86,-12.85,100730,15.90,22.90,0,0,37,1,0
18012,0,0,0,0,0,0,0,6,117.33,66.87,-2.60,0.90,-4.42,-27.72,100732,15.39,22.90,0,4,43,0,0
18012,0,0,0,0,0,0,0,6,118.28,65.90,-2.99,7.67,8.37,-22.25,100732,15.48,22.90,0,2,74,0,0
18015,0,0,0,0,0,0,0,6,119.42,69.77,-5.25,11.18,5.09,-16.70,100733,15.73,22.90,0,0,33,0,0
18218,0,0,0,0,0,0,0,6,117.07,73.28,-4.05,-3.79,-6.77,6.30,100730,15.48,22.90,0,1,19,0,0
18220,0,0,0,0,0,0,0,6,115.13,79.42,-4.41,-15.34,-9.34,5.88,100735,15.64,22.90,0,0,11,0,0
18222,0,0,0,0,0,0,0,6,102.02,85.39,-2.97,3.68,-17.11,-0.69,100728,16.06,22.90,0,4,0,0,0
18372,0,0,0,0,0,0,0,6,83.17,86.92,-2.98,10.57,-7.20,9.50,100735,15.64,22.90,0,0,0,0,0
18403,0,0,0,0,0,0,0,6,29.65,80.90,-6.53,-9.47,3.15,21.14,100730,15.73,22.90,0,1,2,0,0
18405,0,0,0,0,0,0,0,6,-47.52,74.60,-11.37,-10.56,-0.76,22.17,100733,15.48,22.90,4,2,0,0,0
18407,0,0,0,0,0,0,0,6,-76.13,71.47,-14.96,-5.87,-0.07,5.89,100733,15.73,22.90,0,0,0,0,0
18572,0,0,0,0,0,0,0,6,-94.08,74.88,-14.45,9.17,-2.09,-6.66,100728,15.98,22.90,0,4,0,0,0
18575,0,0,0,0,0,0,0,6,-103.42,78.49,-11.48,22.89,6.47,10.87,100728,15.64,22.90,0,0,0,0,0
18575,0,0,0,0,0,0,0,6,-96.11,80.73,-9.11,7.47,8.90,-17.36,100733,15.22,22.90,0,0,0,0,1
18575,0,0,0,0,0,0,0,6,-97.99,82.29,-7.71,-11.80,1.94,-4.67,100730,15.48,22.90,0,0,0,0,1
18728,0,0,0,0,0,0,0,6,-99.76,84.38,-5.26,-9.56,3.56,5.99,100726,15.64,22.90,0,0,0,0,1
18728,0,0,0,0,0,0,0,6,-97.99,86.62,-2.47,1.79,13.46,4.58,100735,15.73,22.90,5,0,0,0,1
18729,0,0,0,0,0,0,0,6,-96.53,87.00,-0.47,12.32,15.96,-0.75,100735,15.98,22.90,14,0,0,0,1
18855,0,0,0,0,0,0,0,6,-94.81,87.18,0.34,8.55,13.50,1.66,100732,15.81,22.90,22,0,0,0,1
19008,0,0,0,0,0,0,0,6,-92.79,87.10,1.52,4.04,7.21,5.76,100735,15.90,22.90,36,0,0,0,1
19014,0,0,0,0,0,0,0,6,-91.46,86.48,2.60,1.64,-0.02,3.86,100728,15.64,22.90,48,0,0,0,1
19015,0,0,0,0,0,0,0,6,-91.96,85.17,3.75,0.97,-5.69,-3.62,100729,15.98,22.90,49,0,0,0,1
19016,0,0,0,0,0,0,0,6,-95.89,82.93,5.29,0.93,-4.38,-6.77,100731,15.64,22.90,78,0,0,0,1
19017,0,0,0,0,0,0,0,6,-105.24,80.27,7.46,-1.51,-1.65,-14.59,100731,15.73,22.90,105,0,0,0,1
19184,0,0,0,0,0,0,0,6,-121.77,78.42,8.87,-3.44,0.04,-12.53,100723,16.56,22.90,121,0,0,0,1
19185,0,0,0,0,0,0,0,6,-131.45,77.52,9.47,-2.50,-1.13,-6.75,100728,15.98,22.90,118,0,0,0,1
19185,0,0,0,0,0,0,0,6,-151.08,75.29,10.52,-0.74,7.61,-7.86,100733,15.64,22.90,105,0,0,0,1
19298,0,0,0,0,0,0,0,6,-167.57,73.91,11.45,-1.62,8.17,8.76,100732,15.64,22.90,61,0,0,0,1
19298,0,0,0,0,0,0,0,6,-172.10,73.72,12.56,0.98,4.08,-0.98,100741,15.73,22.90,35,0,0,0,1
19429,0,0,0,0,0,0,0,6,178.36,72.86,14.12,3.20,1.76,-1.35,100732,15.48,22.90,18,0,0,0,1
19430,0,0,0,0,0,0,0,6,171.52,72.53,14.75,1.48,-1.77,-1.97,100735,16.06,22.90,13,0,0,0,1
19430,0,0,0,0,0,0,0,6,163.37,72.82,14.58,1.20,-5.98,-2.68,100730,16.23,22.90,10,0,0,0,1
19562,0,0,0,0,0,0,0,6,159.99,72.50,14.75,5.89,-7.21,0.04,100733,15.81,22.90,10,0,0,0,1
19563,0,0,0,0,0,0,0,6,167.98,72.23,14.62,8.11,-7.41,2.17,100735,15.81,22.90,0,0,0,0,1
19721,0,0,0,0,0,0,0,6,-178.70,72.77,13.97,4.61,-9.16,1.15,100731,15.64,22.90,0,0,0,0,1
19745,0,0,0,0,0,0,0,6,-165.25,73.06,13.48,2.77,-8.52,-0.09,100729,15.39,22.90,0,0,0,0,1
19747,0,0,0,0,0,0,0,6,-159.71,72.52,13.70,3.55,-4.84,-3.16,100736,15.64,22.90,0,0,0,1,1
19749,0,0,0,0,0,0,0,6,-165.21,71.11,14.59,8.07,-0.99,-4.99,100741,15.14,22.90,0,0,0,0,1
19940,0,0,0,0,0,0,0,6,-174.46,69.17,15.91,6.63,-0.49,-3.05,100735,15.98,22.90,0,0,0,0,1
19941,0,0,0,0,0,0,0,6,178.48,67.67,17.16,4.36,-0.97,-1.94,100731,16.23,22.90,7,0,0,1,1
19941,0,0,0,0,0,0,0,6,162.00,66.97,18.29,7.06,2.06,3.60,100726,15.98,22.90,13,0,0,1,1
20089,0,0,0,0,0,0,0,6,159.79,66.76,19.31,8.14,6.81,-1.45,100731,15.73,22.90,84,0,0,1,1
20110,0,0,0,0,0,0,0,6,154.40,65.66,21.47,4.92,4.91,11.50,100726,15.64,22.90,65,0,0,1,1
20110,0,0,0,0,0,0,0,6,152.48,65.15,23.60,2.11,-9.23,24.18,100733,16.06,22.90,45,0,0,1,1
20111,0,0,0,0,0,0,0,6,139.86,64.00,25.65,-7.69,-7.17,21.06,100729,16.06,22.90,29,0,0,1,1
20229,0,0,0,0,0,0,0,6,128.99,63.69,26.01,4.20,-10.61,-1.96,100732,15.48,22.90,0,0,0,0,1
20249,0,0,0,0,0,0,0,6,140.82,59.61,28.64,21.92,-15.23,-0.58,100732,15.64,22.90,0,0,0,0,1
20386,0,0,0,0,0,0,0,6,142.41,55.55,31.83,24.40,-4.66,-28.57,100732,15.48,22.90,0,0,0,0,0
20396,0,0,0,0,0,0,0,6,136.14,55.28,32.10,1.68,16.61,-15.64,100733,14.97,22.90,0,0,0,0,1
20396,0,0,0,0,0,0,0,6,130.39,56.18,31.57,-10.74,10.93,-13.94,100731,15.81,22.90,0,0,0,0,0
20397,0,0,0,0,0,0,0,6,130.62,53.51,33.87,-6.69,-1.71,-6.44,100732,15.64,22.90,0,0,0,0,0
20527,0,0,0,0,0,0,0,6,132.84,50.16,37.36,-0.48,-5.97,-0.99,100725,16.23,22.90,0,2,0,0,0
20527,0,0,0,0,0,0,0,6,134.93,48.21,39.86,3.40,-3.74,9.21,100729,15.81,22.90,0,0,39,0,0
20528,0,0,0,0,0,0,0,6,134.27,50.78,38.00,7.38,-8.33,4.84,100726,16.23,22.90,0,0,40,0,0
20676,0,0,0,0,0,0,0,6,132.60,55.35,33.87,1.35,-25.92,-7.83,100729,15.64,22.90,0,0,42,0,1
20676,0,0,0,0,0,0,0,6,133.34,59.40,29.71,-11.43,-46.83,-27.73,100725,15.98,22.90,0,0,38,0,1
20677,0,0,0,0,0,0,0,6,137.36,60.44,27.92,-11.84,-28.39,-8.99,100729,15.14,22.90,0,0,24,0,1
20813,0,0,0,0,0,0,0,6,139.98,61.35,26.25,26.67,-10.84,-12.00,100731,16.23,22.90,0,0,14,0,1
20814,0,0,0,0,0,0,0,6,137.15,60.82,27.16,60.57,11.28,-1.38,100738,15.39,22.90,0,0,37,0,1
20965,0,0,0,0,0,0,0,6,144.09,59.42,27.87,47.13,-9.10,8.85,100736,15.48,22.90,0,0,58,0,1
20970,0,0,0,0,0,0,0,6,157.38,60.80,25.25,13.36,-17.68,1.22,100733,15.81,22.90,0,0,79,0,1
20970,0,0,0,0,0,0,0,6,166.60,63.14,22.37,-1.91,-6.80,-3.43,100732,15.81,22.90,0,0,177,0,1
20971,0,0,0,0,0,0,0,6,154.31,63.11,21.39,-22.97,13.54,-2.78,100735,16.23,22.90,0,0,0,0,0
21111,0,0,0,0,0,0,0,6,154.10,65.92,17.42,-5.17,12.00,-9.79,100736,15.48,22.90,0,0,0,0,1
21112,0,0,0,0,0,0,0,6,149.41,68.01,14.91,25.37,20.18,-14.27,100742,15.48,22.90,1,0,0,0,0
21244,0,0,0,0,0,0,0,6,164.76,68.06,14.91,12.55,8.80,-8.92,100738,15.22,22.90,0,0,2,0,0
21260,0,0,0,0,0,0,0,6,179.60,69.96,16.56,6.17,-0.90,-1.51,100729,15.98,22.90,0,0,0,0,0
21261,0,0,0,0,0,0,0,6,178.36,70.64,17.40,6.18,-0.04,5.40,100741,15.98,22.90,0,0,0,0,0
21371,0,0,0,0,0,0,0,6,-177.70,71.75,17.14,10.50,-16.58,-1.42,100729,16.23,22.90,0,0,0,0,0
21375,0,0,0,0,0,0,0,6,178.76,73.17,15.73,17.40,-0.22,9.90,100732,15.73,22.90,1,0,0,0,0
21477,0,0,0,0,0,0,0,6,-148.27,73.87,15.44,33.41,19.57,33.78,100731,15.81,22.90,6,0,1,0,0
21498,0,0,0,0,0,0,0,6,-71.56,71.74,18.26,38.65,44.73,36.82,100728,15.98,22.90,4,0,0,0,0
21498,0,0,0,0,0,0,0,6,-51.73,66.81,22.63,0.42,25.40,23.86,100729,16.06,22.90,0,2,0,0,0
21609,0,0,0,0,0,0,0,6,-47.94,63.81,25.68,-9.71,-26.42,-2.28,100722,16.06,22.90,4,0,0,0,0
21610,0,0,0,0,0,0,0,6,-33.60,63.24,26.52,1.11,-30.01,0.42,100728,16.23,22.90,10,1,0,0,0
21716,0,0,0,0,0,0,0,6,82.29,61.17,28.70,-1.09,-27.34,14.34,100728,16.31,22.90,23,0,0,0,0
21740,0,0,0,0,0,0,0,6,137.86,56.69,33.30,-9.33,-40.17,1.91,100719,16.23,22.90,26,0,0,1,0
21741,0,0,0,0,0,0,0,6,-129.06,51.59,37.31,-11.94,-43.17,-28.30,100723,16.48,22.90,40,0,0,1,0
21928,0,0,0,0,0,0,0,6,-132.29,48.24,39.23,-5.17,-17.30,-21.87,100729,15.81,22.90,41,0,0,1,1
21929,0,0,0,0,0,0,0,6,-105.55,47.79,38.59,-26.20,-17.37,-0.33,100726,16.31,22.90,19,0,0,1,1
21929,0,0,0,0,0,0,0,6,-90.14,49.97,35.23,-34.44,-26.94,-2.20,100731,16.31,22.90,8,0,0,1,1
21930,0,0,0,0,0,0,0,6,-81.12,56.83,28.27,-19.92,-16.24,18.20,100722,16.31,22.90,12,0,0,1,1
22082,0,0,0,0,0,0,0,6,-74.05,63.99,24.06,18.63,4.39,30.04,100726,16.06,22.90,13,0,0,1,0
22083,0,0,0,0,0,0,0,6,-69.01,65.39,24.25,15.62,37.29,42.28,100725,15.98,22.90,9,0,4,1,0
22084,0,0,0,0,0,0,0,6,-70.92,66.70,22.79,12.01,14.78,15.22,100725,16.48,22.90,12,0,48,1,0
22215,0,0,0,0,0,0,0,6,-74.35,68.77,20.48,12.25,20.45,6.33,100720,16.31,22.90,7,0,49,1,0
22216,0,0,0,0,0,0,0,6,-74.48,67.99,21.23,9.55,33.91,9.75,100728,15.81,22.90,3,0,58,1,0
22344,0,0,0,0,0,0,0,6,-75.47,65.82,23.06,13.64,36.85,7.02,100732,15.98,23.00,4,0,80,1,0
22348,0,0,0,0,0,0,0,6,-83.43,65.75,20.41,-4.85,73.38,-37.79,100742,15.56,22.90,10,0,53,1,0
22349,0,0,0,0,0,0,0,6,-87.50,64.30,19.82,-13.82,46.75,-30.94,100726,16.48,22.90,12,0,0,1,0
22500,0,0,0,0,0,0,0,6,-89.17,58.54,23.36,-15.36,-0.82,-23.03,100726,15.73,22.90,11,0,107,1,0
22502,0,0,0,0,0,0,0,6,-85.91,51.79,30.91,19.11,-18.13,-19.88,100722,16.56,22.90,3,0,26,0,0
22505,0,0,0,0,0,0,0,6,-83.32,45.76,37.53,32.43,-28.67,-3.89,100726,16.56,22.90,4,0,121,0,0
22645,0,0,0,0,0,0,0,6,-79.99,43.06,41.42,29.18,-12.34,9.51,100720,16.48,23.00,1,2,69,0,0
22649,0,0,0,0,0,0,0,6,-80.13,42.47,41.37,-19.38,-7.98,31.69,100726,16.48,23.00,3,1,144,0,0
22819,0,0,0,0,0,0,0,6,-71.39,46.82,39.00,-47.52,-12.92,59.87,100723,16.31,23.00,3,4,127,0,0
22826,0,0,0,0,0,0,0,6,-64.02,55.30,32.49,-32.78,2.57,42.75,100732,15.81,22.90,1,8,56,0,0
22826,0,0,0,0,0,0,0,6,-58.61,57.77,32.16,-4.19,-9.80,26.79,100723,16.48,23.00,4,6,93,0,0
22827,0,0,0,0,0,0,0,6,-56.70,56.36,33.62,-1.31,-15.86,-8.11,100729,16.06,23.00,0,8,29,0,0
22827,0,0,0,0,0,0,0,6,-53.66,54.19,35.79,-12.14,-29.54,-8.44,100735,16.48,23.00,4,8,32,0,0
22985,0,0,0,0,0,0,0,6,-44.20,51.14,37.95,44.25,-5.75,-9.11,100725,16.48,23.00,0,4,210,0,0
22985,0,0,0,0,0,0,0,6,-30.77,45.45,42.31,13.61,18.39,-7.58,100731,15.22,23.00,0,10,54,0,0
22985,0,0,0,0,0,0,0,6,-27.63,45.41,43.76,-18.99,3.40,-5.46,100734,15.56,23.00,0,20,44,0,0
23122,0,0,0,0,0,0,0,6,-11.28,46.31,43.14,-3.52,-8.60,10.45,100726,15.48,23.00,0,140,59,0,0
23123,0,0,0,0,0,0,0,6,-32.71,45.79,44.17,11.21,4.07,-7.74,100726,16.31,23.00,0,46,45,0,0
23261,0,0,0,0,0,0,0,6,-67.59,43.20,46.36,20.49,17.23,-23.59,100723,16.73,23.00,0,48,63,0,0
23266,0,0,0,0,0,0,0,6,-81.39,40.31,47.60,9.77,24.85,-15.06,100722,16.48,23.00,0,32,239,0,0
23266,0,0,0,0,0,0,0,6,-87.18,40.46,44.05,6.18,23.65,-18.94,100722,15.98,23.00,0,255,84,0,0
23266,0,0,0,0,0,0,0,6,-84.24,42.34,40.27,6.53,0.85,-12.28,100718,16.82,23.00,0,220,107,0,0
23402,0,0,0,0,0,0,0,6,-80.43,42.86,37.46,2.15,-8.64,-17.78,100722,16.23,23.00,0,144,173,0,0
23405,0,0,0,0,0,0,0,6,-79.79,44.48,34.26,-15.07,-7.03,6.43,100729,16.06,23.00,0,130,127,0,0
23549,0,0,0,0,0,0,0,6,-77.22,50.87,28.59,-35.26,-9.79,3.59,100729,16.31,23.00,2,103,126,0,0
23551,0,0,0,0,0,0,0,6,-74.33,58.40,24.26,-9.20,-6.93,-11.78,100722,16.56,23.00,3,271,149,0,0
23553,0,0,0,0,0,0,0,6,-70.93,60.71,25.00,27.42,-8.49,-13.06,100723,16.31,23.00,0,229,48,0,0
23724,0,0,0,0,0,0,0,6,-69.12,59.03,27.12,25.39,19.21,18.47,100723,15.81,23.00,0,220,74,1,0
23725,0,0,0,0,0,0,0,6,-67.87,60.27,26.26,7.74,33.89,15.76,100723,16.31,23.00,2,85,80,1,0
23725,0,0,0,0,0,0,0,6,-67.29,61.36,24.72,-13.69,23.92,4.25,100726,16.23,23.00,6,123,92,1,0
23726,0,0,0,0,0,0,0,6,-65.61,61.55,24.73,-23.76,-0.27,2.21,100723,16.23,23.00,6,191,95,1,0
23881,0,0,0,0,0,0,0,6,-65.03,60.87,25.88,-2.14,-33.63,19.51,100725,16.82,23.00,4,98,31,1,0
23881,0,0,0,0,0,0,0,6,-62.43,58.73,29.47,-16.26,-17.94,-14.74,100725,16.56,23.00,0,353,52,1,0
24020,0,0,0,0,0,0,0,6,-58.35,55.09,34.13,-10.88,2.58,-6.03,100721,16.48,23.00,0,231,32,0,0
24027,0,0,0,0,0,0,0,6,-53.76,50.87,38.80,1.29,7.47,0.57,100723,16.31,23.00,0,106,31,0,0
24138,0,0,0,0,0,0,0,6,-51.58,47.37,42.29,20.57,12.32,4.01,100723,16.06,23.00,0,7,40,0,0
24139,0,0,0,0,0,0,0,6,-52.39,46.41,43.17,16.66,-0.44,2.32,100731,16.23,23.00,0,20,22,0,0
24145,0,0,0,0,0,0,0,6,-55.52,45.10,43.99,9.48,5.45,19.07,100729,16.23,23.00,2,3,16,0,0
24145,0,0,0,0,0,0,0,6,-58.26,44.64,43.72,6.65,-3.35,13.28,100722,16.31,23.00,0,2,14,0,0
24272,0,0,0,0,0,0,0,6,-56.94,45.05,43.34,13.97,-0.27,18.81,100726,16.06,23.00,0,7,15,0,0
24273,0,0,0,0,0,0,0,6,-54.77,45.41,43.08,1.79,-12.19,-7.20,100732,16.48,23.00,0,1,17,0,0
24273,0,0,0,0,0,0,0,6,-54.73,45.65,43.23,-7.67,-4.13,-25.79,100735,15.48,23.00,8,1,16,0,0
24414,0,0,0,0,0,0,0,6,-60.62,46.51,41.91,-7.85,-1.78,-25.95,100728,15.81,23.00,5,3,24,0,0
24414,0,0,0,0,0,0,0,6,-66.39,46.20,41.72,10.70,-1.51,-15.51,100731,15.56,23.00,8,4,35,0,0
24548,0,0,0,0,0,0,0,6,-64.35,47.24,40.81,3.21,12.37,14.63,100737,15.48,23.00,8,6,76,0,0
24554,0,0,0,0,0,0,0,6,-60.64,46.83,41.06,14.88,10.14,25.18,100734,15.73,23.00,12,2,71,0,0
24555,0,0,0,0,0,0,0,6,-61.42,44.85,42.51,3.98,14.60,43.19,100735,16.06,23.00,13,0,2,0,0
24683,0,0,0,0,0,0,0,6,-63.85,45.84,40.80,-7.97,22.27,27.59,100737,15.81,23.00,18,3,99,0,0
24683,0,0,0,0,0,0,0,6,-69.30,50.51,35.77,-20.81,31.39,3.31,100737,15.56,23.00,18,0,93,0,0
24683,0,0,0,0,0,0,0,6,-75.85,50.89,35.16,-23.87,2.14,-13.79,100732,16.23,23.00,23,0,100,0,0
24810,0,0,0,0,0,0,0,6,-82.99,47.42,39.33,28.43,-28.32,14.03,100735,16.06,23.00,25,0,117,0,0
24810,0,0,0,0,0,0,0,6,-74.59,47.24,40.49,23.73,0.42,23.40,100729,16.06,23.00,18,2,85,0,0
24932,0,0,0,0,0,0,0,6,-74.78,49.79,36.61,0.31,20.80,-4.70,100728,15.73,23.00,18,0,139,1,0
24953,0,0,0,0,0,0,0,6,-77.83,52.92,32.58,-1.74,28.65,1.55,100739,16.23,23.00,18,0,227,1,0
24954,0,0,0,0,0,0,0,6,-78.48,54.80,30.11,5.06,7.77,-7.94,100729,16.23,23.00,31,0,172,1,0
25083,0,0,0,0,0,0,0,6,-77.46,55.85,28.85,-1.04,-10.18,-2.74,100731,15.31,23.00,28,0,67,1,0
25084,0,0,0,0,0,0,0,6,-76.37,58.25,25.84,-10.82,-18.71,15.18,100738,15.81,23.00,27,0,42,1,0
25084,0,0,0,0,0,0,0,6,-75.73,58.43,24.05,-0.73,-14.79,22.56,100722,15.73,23.00,20,0,37,1,0
25229,0,0,0,0,0,0,0,6,-73.16,56.75,26.67,1.47,-2.06,5.82,100731,16.56,23.00,19,0,15,1,0
25230,0,0,0,0,0,0,0,6,-71.17,55.89,28.67,0.85,11.61,0.74,100732,15.31,23.00,12,0,19,1,0
25371,0,0,0,0,0,0,0,6,-70.87,55.81,28.76,-2.85,10.86,0.68,100732,15.31,23.00,11,0,25,1,0
25377,0,0,0,0,0,0,0,6,-71.44,55.74,28.23,2.03,5.36,4.49,100731,16.06,23.00,10,0,20,1,0
25377,0,0,0,0,0,0,0,6,-71.99,55.55,27.95,8.80,-4.86,2.47,100731,16.06,23.00,4,0,22,1,0
25378,0,0,0,0,0,0,0,6,-71.89,55.45,28.02,11.93,-3.44,3.07,100731,15.81,23.00,4,0,23,1,0
25496,0,0,0,0,0,0,0,6,-71.52,54.88,28.47,5.54,1.83,2.42,100732,15.48,23.00,5,0,37,1,0
25496,0,0,0,0,0,0,0,6,-71.58,54.53,28.69,2.84,6.24,3.70,100729,15.73,23.00,5,0,40,1,0
25631,0,0,0,0,0,0,0,6,-71.82,54.57,28.60,5.51,4.88,4.23,100723,16.56,23.00,6,0,48,0,0
25632,0,0,0,0,0,0,0,6,-72.20,54.64,28.42,6.21,-1.15,2.35,100734,16.06,23.00,7,0,48,0,0
25632,0,0,0,0,0,0,0,6,-72.38,54.38,28.56,4.96,-2.54,1.44,100728,16.56,23.00,6,0,41,0,0
25812,0,0,0,0,0,0,0,6,-72.68,54.26,28.86,9.27,-0.88,2.15,100731,15.98,23.00,2,0,43,0,0
25812,0,0,0,0,0,0,0,6,-73.51,54.36,28.71,8.00,-3.13,1.58,100732,15.81,23.00,6,0,41,0,0
25813,0,0,0,0,0,0,0,6,-74.51,54.28,28.55,6.22,-4.63,2.36,100739,15.81,23.00,6,0,36,0,0
25979,0,0,0,0,0,0,0,6,-75.23,53.78,28.88,3.96,-4.33,3.95,100729,15.81,23.00,0,0,28,0,0
25979,0,0,0,0,0,0,0,6,-75.51,53.13,29.63,4.24,-4.24,3.92,100732,15.14,23.00,6,0,33,0,0
25980,0,0,0,0,0,0,0,6,-75.87,52.54,30.60,10.38,-4.52,3.57,100732,15.56,23.00,4,0,33,1,0
26092,0,0,0,0,0,0,0,6,-76.13,51.84,31.86,13.30,-3.20,4.67,100726,16.48,23.00,2,0,50,1,0
26103,0,0,0,0,0,0,0,6,-75.75,50.98,33.40,9.87,-5.19,5.62,100728,15.73,23.00,2,0,35,1,0
26103,0,0,0,0,0,0,0,6,-76.34,50.68,33.95,6.83,-1.87,1.08,100735,15.48,23.00,2,0,31,1,0
26291,0,0,0,0,0,0,0,6,-77.26,50.95,33.26,9.10,-2.05,1.70,100724,15.73,23.00,3,0,29,1,0
26291,0,0,0,0,0,0,0,6,-77.20,50.97,32.60,12.38,-6.55,6.01,100731,15.73,23.00,3,0,20,1,0
26292,0,0,0,0,0,0,0,6,-76.66,50.34,32.79,8.73,-7.45,7.40,100735,16.06,23.00,2,0,26,1,0
26292,0,0,0,0,0,0,0,6,-76.64,49.71,33.85,5.70,0.02,6.13,100729,15.98,23.00,3,0,29,1,0
26424,0,0,0,0,0,0,0,6,-77.23,49.98,34.02,6.59,2.68,5.06,100721,16.40,23.00,4,0,29,1,0
26425,0,0,0,0,0,0,0,6,-78.37,50.51,33.57,8.41,-5.14,4.23,100739,15.48,23.00,3,0,31,1,0
26577,0,0,0,0,0,0,0,6,-79.35,50.61,33.58,9.50,-8.30,5.61,100731,16.06,23.00,3,0,22,1,0
26583,0,0,0,0,0,0,0,6,-79.99,50.39,33.81,8.34,-6.62,5.84,100728,16.06,23.00,3,0,28,1,0
26725,0,0,0,0,0,0,0,6,-80.70,49.99,34.10,6.31,-3.67,5.20,100726,15.98,23.00,2,0,40,1,0
26726,0,0,0,0,0,0,0,6,-81.17,49.72,34.46,8.28,-3.00,6.23,100725,16.23,23.00,2,0,42,1,0
26735,0,0,0,0,0,0,0,6,-81.74,49.51,34.91,8.57,-4.17,4.38,100724,16.06,23.00,0,0,36,1,0
26735,0,0,0,0,0,0,0,6,-82.79,49.40,35.18,9.53,-4.83,3.55,100724,15.56,23.00,0,0,37,1,0
26736,0,0,0,0,0,0,0,6,-83.92,49.23,35.01,8.08,-5.89,4.61,100729,16.31,23.00,0,0,46,0,0
26871,0,0,0,0,0,0,0,6,-84.78,48.89,34.92,8.88,-5.83,3.88,100726,15.98,23.00,2,0,45,0,0
26871,0,0,0,0,0,0,0,6,-85.79,48.43,35.05,10.36,-4.35,3.96,100726,16.56,23.00,1,0,37,0,0
26992,0,0,0,0,0,0,0,6,-86.76,47.87,35.21,11.42,-5.44,4.86,100726,16.65,23.00,0,0,33,1,0
26992,0,0,0,0,0,0,0,6,-87.67,47.07,35.44,8.47,-9.90,4.19,100725,16.40,23.00,1,0,28,0,0
26993,0,0,0,0,0,0,0,6,-88.99,46.27,35.94,8.99,-8.87,3.52,100729,15.98,23.00,1,0,31,0,0
27127,0,0,0,0,0,0,0,6,-91.05,45.63,36.38,8.75,-6.96,3.05,100726,16.06,23.00,0,0,37,0,0
27128,0,0,0,0,0,0,0,6,-93.03,45.19,37.03,9.55,-2.10,7.64,100719,17.15,23.10,0,0,61,0,0
27239,0,0,0,0,0,0,0,6,-95.03,44.75,38.43,9.32,-0.20,6.77,100735,15.73,23.10,0,0,92,0,0
27253,0,0,0,0,0,0,0,6,-93.88,43.00,41.53,16.93,-17.25,18.83,100738,15.22,23.10,0,2,55,0,0
27253,0,0,0,0,0,0,0,6,-91.52,40.64,45.18,13.60,-9.10,11.75,100728,15.73,23.10,2,0,40,0,0
27393,0,0,0,0,0,0,0,6,-95.81,39.61,47.47,11.82,-4.30,7.99,100728,15.73,23.10,0,0,62,0,0
27394,0,0,0,0,0,0,0,6,-102.08,39.73,48.04,14.50,-5.83,5.51,100737,16.06,23.00,0,0,60,0,0
27394,0,0,0,0,0,0,0,6,-105.26,39.24,48.93,14.10,-9.33,4.62,100728,16.06,23.00,0,4,31,0,0
27535,0,0,0,0,0,0,0,6,-107.33,38.68,49.59,10.43,-10.12,0.08,100732,15.98,23.00,0,1,44,0,0
27536,0,0,0,0,0,0,0,6,-110.26,38.91,49.13,7.69,-5.77,1.00,100728,15.81,23.10,0,4,59,0,0
27536,0,0,0,0,0,0,0,6,-103.19,39.89,47.41,6.13,-2.51,0.92,100732,15.31,23.00,0,4,71,0,0
27670,0,0,0,0,0,0,0,6,-91.48,41.28,45.22,5.82,-2.77,-1.60,100721,16.31,23.10,0,1,118,0,0
27671,0,0,0,0,0,0,0,6,-83.32,42.52,43.44,3.93,-4.51,-5.31,100731,15.98,23.00,0,2,138,0,0
27782,0,0,0,0,0,0,0,6,-88.57,41.46,45.20,7.22,1.98,11.35,100725,16.82,23.00,0,2,42,0,0
27787,0,0,0,0,0,0,0,6,-96.50,40.62,46.34,5.92,-1.29,10.04,100728,16.31,23.00,0,0,80,0,0
27891,0,0,0,0,0,0,0,6,-102.77,39.82,47.47,8.03,-6.71,7.45,100725,16.65,23.10,1,0,80,0,0
27899,0,0,0,0,0,0,0,6,-112.00,39.18,48.63,10.66,-5.45,7.49,100722,16.31,23.10,0,4,63,0,0
27900,0,0,0,0,0,0,0,6,-127.20,38.78,49.54,9.95,-5.92,9.15,100725,16.31,23.10,1,1,50,0,0
28034,0,0,0,0,0,0,0,6,-145.00,38.22,50.29,12.82,-10.47,9.02,100731,15.98,23.10,0,4,51,0,0
28036,0,0,0,0,0,0,0,6,-153.78,37.77,50.64,10.83,-7.83,6.36,100728,16.06,23.10,0,4,71,0,0
28040,0,0,0,0,0,0,0,6,-157.61,37.72,50.54,10.67,-6.47,6.07,100728,16.40,23.00,0,3,45,0,0
28179,0,0,0,0,0,0,0,6,-163.65,38.42,49.87,13.57,-4.29,11.28,100726,16.23,23.10,0,0,49,0,0
28180,0,0,0,0,0,0,0,6,-160.71,39.85,48.09,13.12,-2.06,6.98,100728,16.31,23.10,0,4,43,0,0
28180,0,0,0,0,0,0,0,6,-160.24,41.33,46.10,11.49,0.94,5.72,100729,16.31,23.10,0,0,60,0,0
28310,0,0,0,0,0,0,0,6,-160.90,42.62,44.22,15.03,-2.42,6.10,100729,15.81,23.10,0,0,60,0,0
28310,0,0,0,0,0,0,0,6,-161.52,43.23,43.27,15.62,3.31,3.25,100726,16.56,23.10,0,1,64,0,0
28420,0,0,0,0,0,0,0,6,-153.48,43.54,41.84,-0.13,-11.24,8.95,100724,16.06,23.10,0,0,79,0,0
28425,0,0,0,0,0,0,0,6,-143.84,43.92,38.89,-4.77,-25.14,2.22,100726,16.31,23.10,0,0,96,0,0
28427,0,0,0,0,0,0,0,6,-152.43,43.10,39.85,0.57,-14.85,6.05,100722,16.82,23.00,3,0,63,0,0
28558,0,0,0,0,0,0,0,6,-160.44,42.23,41.65,10.42,-6.20,11.03,100716,16.56,23.10,12,0,75,0,0
28558,0,0,0,0,0,0,0,6,-168.23,41.52,43.84,13.76,0.88,18.75,100731,15.81,23.10,6,0,74,0,0
28691,0,0,0,0,0,0,0,6,-176.58,41.16,45.51,20.92,-6.29,10.03,100731,15.98,23.10,4,0,38,0,0
28691,0,0,0,0,0,0,0,6,167.25,40.02,48.22,17.09,-8.00,14.90,100726,16.06,23.10,8,1,40,0,0
28692,0,0,0,0,0,0,0,6,160.99,39.66,48.86,9.21,-3.45,0.20,100729,15.81,23.10,3,0,53,0,0
28837,0,0,0,0,0,0,0,6,159.91,39.62,48.76,4.78,0.37,5.96,100731,16.06,23.10,0,0,44,0,0
28838,0,0,0,0,0,0,0,6,165.58,40.60,47.10,6.16,-1.67,4.58,100732,16.06,23.10,8,0,33,0,0
28838,0,0,0,0,0,0,0,6,177.31,42.22,44.31,10.90,-5.53,8.23,100731,15.31,23.10,0,0,65,0,0
28988,0,0,0,0,0,0,0,6,-175.07,43.02,42.03,12.48,-15.39,8.90,100725,16.06,23.10,3,0,48,0,0
28989,0,0,0,0,0,0,0,6,-178.35,42.94,41.99,11.38,-6.02,8.45,100732,16.65,23.10,1,0,64,0,0
28989,0,0,0,0,0,0,0,6,179.05,43.02,41.96,10.51,-1.67,5.38,100725,16.31,23.10,0,0,79,0,0
29146,0,0,0,0,0,0,0,6,177.20,42.70,41.78,14.82,-5.30,3.50,100724,16.40,23.10,0,0,55,0,0
29146,0,0,0,0,0,0,0,6,174.85,41.51,42.31,9.49,-5.12,10.46,100728,16.06,23.10,2,0,50,0,0
29251,0,0,0,0,0,0,0,6,174.36,41.07,42.28,3.30,-1.51,6.74,100729,15.48,23.10,0,0,45,0,0
29263,0,0,0,0,0,0,0,6,171.59,41.16,42.38,6.06,-3.01,1.91,100728,15.98,23.10,0,1,50,0,0
29263,0,0,0,0,0,0,0,6,169.96,41.65,42.07,4.38,-7.46,8.78,100725,16.65,23.10,0,0,40,0,0
29395,0,0,0,0,0,0,0,6,170.59,43.31,40.76,6.55,-7.64,10.83,100728,15.98,23.10,0,2,39,0,0
29398,0,0,0,0,0,0,0,6,168.02,43.94,40.89,11.95,-4.39,2.89,100726,16.06,23.10,0,0,28,0,0
29400,0,0,0,0,0,0,0,6,169.72,42.78,42.44,4.49,3.03,11.65,100721,16.31,23.10,0,0,47,0,0
29543,0,0,0,0,0,0,0,6,175.86,44.44,40.70,13.19,-15.07,1.65,100729,16.31,23.10,0,0,71,0,0
29544,0,0,0,0,0,0,0,6,168.73,45.34,40.70,8.44,2.12,-0.15,100731,16.31,23.10,0,1,61,0,0
29681,0,0,0,0,0,0,0,6,166.92,46.56,39.62,8.78,-2.34,4.13,100734,15.98,23.10,0,0,120,0,0
29686,0,0,0,0,0,0,0,6,169.12,47.31,38.51,8.73,-5.82,1.87,100722,16.06,23.10,0,1,119,0,0
29687,0,0,0,0,0,0,0,6,168.83,47.27,38.57,12.96,-4.32,5.87,100728,16.06,23.10,0,0,117,0,0
29687,0,0,0,0,0,0,0,6,167.34,47.06,38.96,9.69,-6.11,6.25,100731,15.98,23.10,0,1,75,0,0
29823,0,0,0,0,0,0,0,6,166.24,46.78,39.43,6.29,-4.66,9.58,100726,16.31,23.10,2,0,66,0,0
29823,0,0,0,0,0,0,0,6,163.96,46.68,40.01,9.93,-4.39,5.19,100724,16.23,23.10,1,0,37,0,0
29824,0,0,0,0,0,0,0,6,160.60,46.44,40.77,12.74,-7.43,2.49,100731,16.23,23.10,2,0,35,0,0
29984,0,0,0,0,0,0,0,6,157.91,45.81,41.68,12.71,-9.19,2.66,100729,15.81,23.10,2,0,29,0,0
29984,0,0,0,0,0,0,0,6,155.53,44.71,43.00,15.69,-5.94,2.41,100726,16.40,23.10,2,0,35,0,0
29985,0,0,0,0,0,0,0,6,152.44,43.47,44.64,14.50,-6.57,6.62,100741,15.73,23.10,4,0,33,0,0
30199,0,0,0,0,0,0,0,6,150.33,42.48,45.91,4.50,-9.55,10.04,100728,16.56,23.10,3,0,34,0,0
30199,0,0,0,0,0,0,0,6,148.24,42.05,46.57,0.45,-7.61,7.51,100726,16.06,23.10,4,0,28,0,0
30200,0,0,0,0,0,0,0,6,145.96,42.62,46.16,3.82,-6.38,8.21,100729,16.15,23.10,0,4,47,0,0
30200,0,0,0,0,0,0,0,6,144.68,43.96,44.73,5.09,-5.82,6.21,100719,16.40,23.10,8,2,79,0,0
30317,0,0,0,0,0,0,0,6,144.22,45.58,42.83,11.85,-2.38,9.13,100731,16.31,23.10,3,0,62,0,0
30424,0,0,0,0,0,0,0,6,145.60,47.30,40.53,15.64,-7.02,9.84,100727,16.06,23.10,5,0,12,0,0
30428,0,0,0,0,0,0,0,6,149.26,48.19,38.63,13.24,-12.15,7.98,100731,15.56,23.10,6,4,127,0,0
30428,0,0,0,0,0,0,0,6,150.35,47.43,38.88,3.38,-8.45,4.59,100731,15.73,23.10,4,0,6,0,0
30429,0,0,0,0,0,0,0,6,148.97,47.09,39.36,-0.30,0.93,-0.43,100735,16.06,23.10,8,0,57,0,0
30552,0,0,0,0,0,0,0,6,146.97,47.57,38.94,4.21,0.03,2.70,100729,15.81,23.10,6,0,164,0,0
30552,0,0,0,0,0,0,0,6,147.02,47.87,38.26,12.45,-5.91,18.06,100738,15.06,23.10,5,0,62,0,0
30682,0,0,0,0,0,0,0,6,146.12,48.37,37.68,10.51,-0.55,8.61,100728,16.06,23.10,8,0,87,0,0
30683,0,0,0,0,0,0,0,6,144.54,48.80,37.30,8.82,4.35,8.35,100727,16.06,23.10,9,0,91,0,0
30683,0,0,0,0,0,0,0,6,144.29,48.93,36.95,2.47,-6.17,12.86,100728,16.15,23.10,9,0,150,0,0
30808,0,0,0,0,0,0,0,6,144.67,49.10,36.42,6.28,-9.77,9.46,100734,15.73,23.10,7,0,7,0,0
30808,0,0,0,0,0,0,0,6,144.14,48.90,36.97,5.29,-2.68,5.10,100731,16.06,23.10,15,0,152,0,0
30969,0,0,0,0,0,0,0,6,144.19,49.09,36.92,5.71,-2.77,5.65,100727,16.40,23.10,13,0,95,0,0
30970,0,0,0,0,0,0,0,6,144.23,49.61,36.37,9.15,-5.88,2.57,100734,16.40,23.10,11,0,104,0,0
30970,0,0,0,0,0,0,0,6,144.09,49.71,36.24,6.37,-2.63,1.47,100725,16.15,23.10,17,0,88,0,0
31080,0,0,0,0,0,0,0,6,144.08,49.68,36.37,8.43,1.98,1.42,100722,17.07,23.10,15,0,90,0,0
31094,0,0,0,0,0,0,0,6,144.40,49.72,36.40,9.13,-1.24,0.32,100727,15.81,23.10,14,0,90,1,0
31095,0,0,0,0,0,0,0,6,144.35,49.72,36.50,10.16,-6.78,1.03,100724,16.56,23.10,16,0,102,1,0
31241,0,0,0,0,0,0,0,6,144.23,49.52,36.72,8.85,-8.90,2.44,100731,16.65,23.10,14,1,85,0,0
31241,0,0,0,0,0,0,0,6,144.83,48.83,37.08,11.50,-11.53,0.36,100722,16.06,23.10,16,0,83,1,0
31366,0,0,0,0,0,0,0,6,144.43,48.24,37.68,12.61,-8.59,1.25,100725,16.06,23.10,13,0,72,1,0
31385,0,0,0,0,0,0,0,6,144.06,47.81,38.12,6.69,-1.53,2.69,100727,16.06,23.10,12,0,66,1,0
31385,0,0,0,0,0,0,0,6,144.01,47.60,38.21,4.74,-2.70,3.17,100731,15.73,23.10,12,0,43,1,0
31385,0,0,0,0,0,0,0,6,144.17,47.77,37.73,10.86,-13.82,4.21,100728,16.40,23.10,13,0,36,1,0
31533,0,0,0,0,0,0,0,6,143.18,47.64,37.97,15.82,-17.48,4.62,100731,16.56,23.10,11,0,38,1,0
31535,0,0,0,0,0,0,0,6,141.77,47.46,38.42,13.62,-11.40,6.53,100725,16.31,23.10,10,0,40,1,0
31680,0,0,0,0,0,0,0,6,140.77,47.14,38.83,7.44,-7.89,8.68,100722,16.65,23.10,12,0,47,0,0
31694,0,0,0,0,0,0,0,6,140.32,46.78,39.17,5.97,-6.01,9.47,100734,16.65,23.10,10,0,41,1,0
31695,0,0,0,0,0,0,0,6,139.90,46.48,39.50,9.58,-5.99,10.25,100729,15.73,23.10,16,0,47,0,0
31799,0,0,0,0,0,0,0,6,139.49,46.30,39.75,8.85,-3.67,11.05,100727,16.06,23.10,11,0,52,0,0
31806,0,0,0,0,0,0,0,6,138.98,46.35,39.76,8.98,-6.23,8.60,100727,16.31,23.10,12,0,31,0,0
31806,0,0,0,0,0,0,0,6,138.52,46.33,39.93,8.68,-6.29,9.99,100728,16.06,23.10,6,0,71,1,0
31930,0,0,0,0,0,0,0,6,138.06,46.40,40.07,9.16,-5.26,9.79,100725,16.90,23.10,11,0,70,0,0
31931,0,0,0,0,0,0,0,6,137.66,46.45,40.19,8.84,-4.90,10.27,100725,16.56,23.10,10,2,71,0,0
31931,0,0,0,0,0,0,0,6,137.58,46.37,40.28,7.98,-5.10,9.01,100722,16.90,23.10,7,0,72,0,0
32067,0,0,0,0,0,0,0,6,137.63,46.33,40.19,8.99,-5.67,8.03,100727,16.40,23.10,10,0,72,0,0
32069,0,0,0,0,0,0,0,6,137.73,46.28,40.07,9.70,-6.90,7.23,100727,16.82,23.10,7,0,74,1,0
32224,0,0,0,0,0,0,0,6,138.01,46.07,39.99,9.42,-7.55,7.27,100734,16.15,23.10,7,0,72,1,0
32226,0,0,0,0,0,0,0,6,138.38,45.79,39.96,9.08,-6.39,6.37,100725,16.15,23.10,8,0,76,1,0
32227,0,0,0,0,0,0,0,6,138.72,45.54,39.93,8.74,-5.48,6.52,100728,15.98,23.10,8,0,71,1,0
32398,0,0,0,0,0,0,0,6,139.17,45.32,39.79,8.78,-5.01,6.42,100722,16.40,23.10,6,0,96,1,0
32398,0,0,0,0,0,0,0,6,139.68,45.17,39.49,9.34,-5.74,6.03,100729,16.31,23.10,6,0,58,1,0
32399,0,0,0,0,0,0,0,6,139.87,45.18,39.15,10.47,-6.52,4.62,100727,16.31,23.10,5,0,61,1,0
32399,0,0,0,0,0,0,0,6,139.85,45.12,39.07,10.62,-4.48,4.81,100725,15.98,23.10,5,0,56,1,0
32529,0,0,0,0,0,0,0,6,139.87,44.99,39.11,9.16,-3.58,5.35,100724,16.40,23.10,6,0,46,1,0
32530,0,0,0,0,0,0,0,6,139.94,44.85,39.20,8.39,-2.75,5.87,100722,16.82,23.10,6,0,41,1,0
32530,0,0,0,0,0,0,0,6,140.02,44.84,39.09,8.94,-4.50,5.38,100713,17.07,23.10,8,0,53,1,0
32676,0,0,0,0,0,0,0,6,139.95,44.83,39.07,10.08,-5.11,5.07,100715,16.82,23.10,9,0,50,1,0
32676,0,0,0,0,0,0,0,6,139.78,44.82,39.15,9.36,-4.42,5.38,100722,16.90,23.10,8,0,49,1,0
32791,0,0,0,0,0,0,0,6,139.61,44.81,39.26,8.55,-3.67,5.78,100731,15.81,23.10,10,0,46,1,0
32791,0,0,0,0,0,0,0,6,139.43,44.84,39.40,7.98,-3.03,6.07,100716,16.65,23.10,10,0,3,1,0
32884,0,0,0,0,0,0,0,6,139.20,44.97,39.46,8.07,-3.12,5.87,100724,16.15,23.10,10,0,24,1,0
32890,0,0,0,0,0,0,0,6,138.96,45.15,39.47,8.24,-3.57,5.18,100721,16.31,23.10,10,0,51,1,0
32890,0,0,0,0,0,0,0,6,138.74,45.30,39.47,8.06,-3.66,5.24,100725,16.15,23.10,10,0,40,1,0
33002,0,0,0,0,0,0,0,6,138.55,45.46,39.47,7.99,-3.21,5.16,100730,15.73,23.10,11,0,58,1,0
33002,0,0,0,0,0,0,0,6,138.36,45.65,39.36,8.25,-3.88,5.09,100735,16.40,23.10,8,0,54,1,0
33118,0,0,0,0,0,0,0,6,138.19,45.79,39.32,8.46,-3.44,4.49,100731,16.15,23.10,10,0,59,1,0
33118,0,0,0,0,0,0,0,6,138.05,45.90,39.27,8.31,-4.24,4.86,100718,16.82,23.10,9,0,39,1,0
33242,0,0,0,0,0,0,0,6,137.88,45.99,39.24,8.63,-4.50,4.91,100722,16.40,23.10,10,0,48,1,0
33243,0,0,0,0,0,0,0,6,137.74,46.03,39.23,8.53,-4.28,4.71,100725,16.15,23.10,10,0,47,1,0
33243,0,0,0,0,0,0,0,6,137.66,45.97,39.30,8.52,-3.89,5.18,100727,16.06,23.20,11,0,45,1,0
33365,0,0,0,0,0,0,0,6,137.65,45.88,39.38,8.18,-3.34,5.15,100725,15.90,23.10,8,0,46,1,0
33365,0,0,0,0,0,0,0,6,137.63,45.83,39.37,8.18,-4.12,5.07,100728,16.56,23.10,9,0,45,1,0
33491,0,0,0,0,0,0,0,6,137.53,45.83,39.35,8.59,-4.13,4.85,100727,16.06,23.10,9,0,46,1,0
33492,0,0,0,0,0,0,0,6,137.39,45.84,39.33,8.58,-3.84,4.58,100728,16.40,23.10,10,0,45,1,0
33493,0,0,0,0,0,0,0,6,137.31,45.79,39.35,8.42,-3.63,4.78,100719,16.06,23.20,10,0,37,1,0
33628,0,0,0,0,0,0,0,6,137.30,45.68,39.38,8.17,-3.57,4.85,100730,15.90,23.20,10,0,36,1,0
33630,0,0,0,0,0,0,0,6,137.32,45.58,39.40,7.93,-3.44,4.94,100730,15.90,23.20,10,0,37,1,0
33792,0,0,0,0,0,0,0,6,137.34,45.48,39.39,8.09,-3.11,5.21,100731,16.15,23.20,11,0,5,1,0
33798,0,0,0,0,0,0,0,6,137.43,45.33,39.38,8.10,-2.92,4.77,100734,15.81,23.20,10,0,21,1,0
33798,0,0,0,0,0,0,0,6,137.50,45.24,39.33,8.29,-3.32,4.63,100732,16.15,23.20,9,0,48,1,0
33799,0,0,0,0,0,0,0,6,137.50,45.19,39.28,8.65,-3.57,4.29,100727,15.81,23.20,10,0,38,1,0
33948,0,0,0,0,0,0,0,6,137.49,45.14,39.23,8.70,-3.41,4.26,100731,16.40,23.20,10,0,25,1,0
33948,0,0,0,0,0,0,0,6,137.46,45.11,39.18,8.49,-3.58,4.29,100727,15.90,23.10,10,0,9,1,0
33949,0,0,0,0,0,0,0,6,137.38,45.09,39.17,8.29,-3.28,4.47,100728,16.31,23.20,10,0,11,1,0
34086,0,0,0,0,0,0,0,6,137.23,45.14,39.17,8.34,-3.13,4.65,100735,16.15,23.20,10,0,8,1,0
34086,0,0,0,0,0,0,0,6,137.08,45.20,39.14,8.14,-2.96,5.13,100728,16.65,23.20,11,0,6,1,0
34087,0,0,0,0,0,0,0,6,136.91,45.30,39.06,8.31,-3.00,4.34,100721,16.82,23.10,9,0,41,1,0
34281,0,0,0,0,0,0,0,6,136.70,45.46,38.94,8.66,-3.54,4.41,100722,16.06,23.20,11,0,46,1,0
34282,0,0,0,0,0,0,0,6,136.42,45.64,38.86,8.32,-3.17,4.51,100734,16.40,23.20,10,0,44,1,0
34379,0,0,0,0,0,0,0,6,136.14,45.84,38.80,8.14,-3.51,4.67,100724,16.06,23.20,11,0,16,1,0
34380,0,0,0,0,0,0,0,6,135.85,46.02,38.76,8.31,-3.71,4.60,100727,15.90,23.20,12,0,4,1,0
34392,0,0,0,0,0,0,0,6,135.60,46.14,38.72,8.19,-3.63,4.82,100715,16.90,23.20,10,0,4,1,0
34394,0,0,0,0,0,0,0,6,135.42,46.23,38.65,7.96,-3.62,4.52,100718,16.82,23.20,11,0,7,1,0
34526,0,0,0,0,0,0,0,6,135.24,46.31,38.57,7.86,-3.51,4.55,100721,16.31,23.20,11,0,9,1,0
34527,0,0,0,0,0,0,0,6,135.09,46.34,38.53,7.42,-3.10,4.80,100716,16.82,23.20,11,0,13,1,0
34669,0,0,0,0,0,0,0,6,134.98,46.35,38.50,7.85,-3.37,4.79,100734,15.73,23.20,10,0,9,1,0
34669,0,0,0,0,0,0,0,6,134.89,46.34,38.46,7.44,-3.93,4.57,100730,15.81,23.20,12,0,3,1,0
34670,0,0,0,0,0,0,0,6,134.79,46.31,38.47,7.11,-4.29,4.48,100728,15.73,23.20,12,0,85,1,0
34803,0,0,0,0,0,0,0,6,134.67,46.33,38.47,7.18,-3.36,5.48,100731,16.15,23.20,10,0,1,1,0
34803,0,0,0,0,0,0,0,6,134.60,46.42,38.39,6.75,-1.57,5.85,100731,15.81,23.20,9,0,14,1,0
34803,0,0,0,0,0,0,0,6,134.60,46.54,38.28,9.17,1.67,7.33,100725,15.73,23.20,7,0,7,1,0
34953,0,0,0,0,0,0,0,6,134.76,46.65,38.01,8.86,-0.82,7.06,100715,16.90,23.20,4,0,3,1,0
34955,0,0,0,0,0,0,0,6,135.06,46.62,37.80,7.82,-5.30,4.04,100725,15.90,23.20,4,0,25,1,0
35151,0,0,0,0,0,0,0,6,135.31,46.40,37.96,9.15,-4.47,2.79,100727,16.15,23.20,6,0,64,1,0
35158,0,0,0,0,0,0,0,6,135.56,46.29,37.92,9.00,-2.32,2.86,100719,17.15,23.20,6,0,53,1,0
35159,0,0,0,0,0,0,0,6,135.81,46.23,37.75,7.68,-3.64,1.80,100731,16.15,23.20,7,0,61,1,0
35160,0,0,0,0,0,0,0,6,135.99,46.12,37.75,7.36,-4.20,1.91,100730,16.06,23.20,8,0,61,1,0
35160,0,0,0,0,0,0,0,6,136.00,46.07,37.90,6.99,-2.19,3.07,100722,16.90,23.20,6,0,54,1,0
35333,0,0,0,0,0,0,0,6,136.01,46.04,38.13,7.37,-1.54,3.80,100721,16.40,23.20,7,0,58,1,0
35334,0,0,0,0,0,0,0,6,136.02,46.08,38.25,7.35,-3.25,3.11,100722,16.65,23.20,2,2,55,0,0
35335,0,0,0,0,0,0,0,6,135.95,46.14,38.48,5.49,-5.64,3.42,100727,16.40,23.20,1,0,44,0,0
35471,0,0,0,0,0,0,0,6,135.76,45.98,39.12,3.60,-3.23,4.93,100732,16.40,23.20,4,0,43,0,0
35478,0,0,0,0,0,0,0,6,135.56,45.89,39.63,3.01,-0.50,6.99,100725,16.40,23.20,2,0,53,0,0
35478,0,0,0,0,0,0,0,6,135.29,46.06,39.94,4.38,-0.73,6.67,100731,16.31,23.20,4,2,40,0,0
35625,0,0,0,0,0,0,0,6,134.75,46.41,40.13,7.52,0.70,6.95,100725,16.06,23.20,4,0,42,0,0
