relative time stamp,Walking,Standing,Sitting,Going Upstairs,Going Downstairs,Going In Lift,annotation any activity,yaw,pitch,roll,acc_x,acc_y,acc_z,pressure[pa],altitude[m],temperature[c],sensor Back,stretch left,stretch right,switch left,switch right
2085,0,0,0,0,0,0,0,-40.88,52.77,35.74,1.72,-2.62,21.91,101131,-17.79,25.70,1,0,46,0,0
2149,0,0,0,0,0,0,0,-40.31,52.98,35.31,0.79,-1.74,22.43,101140,-18.04,25.70,1,2,63,0,0
2197,0,0,0,0,0,0,0,-39.43,53.31,34.63,0.07,-3.78,21.33,101137,-18.04,25.80,0,4,53,0,0
2244,0,0,0,0,0,0,0,-38.50,53.44,34.01,-1.58,-5.18,19.22,101139,-17.87,25.80,0,3,67,0,0
2292,0,0,0,0,0,0,0,-37.82,53.19,33.71,-1.03,-1.06,16.74,101141,-17.87,25.80,4,2,61,0,0
2341,0,0,0,0,0,0,0,-37.42,53.11,33.43,5.12,4.42,19.81,101143,-18.12,25.80,1,0,68,0,0
2405,0,0,0,0,0,0,0,-36.36,53.05,33.16,11.18,-3.42,18.08,101140,-18.37,25.80,3,0,72,0,0
2452,0,0,0,0,0,0,0,-35.47,52.43,33.51,5.60,-3.75,13.85,101144,-18.12,25.80,8,0,68,0,0
2500,0,0,0,0,0,0,0,-35.06,51.79,34.04,-0.81,-0.78,17.74,101139,-17.87,25.80,8,0,82,0,0
2548,0,0,0,0,0,0,0,-34.54,51.60,34.17,0.91,0.87,18.66,101144,-18.04,25.80,0,1,91,0,0
2596,0,0,0,0,0,0,0,-33.69,51.75,33.87,5.20,-2.28,15.52,101136,-17.54,25.80,4,0,157,0,0
2644,0,0,0,0,0,0,0,-33.09,51.93,33.71,6.15,-3.94,13.71,101125,-17.54,25.80,8,0,155,0,0
2692,0,0,0,0,0,0,0,-32.88,51.80,33.94,3.01,-1.00,14.31,101136,-17.79,25.80,3,1,182,0,0
2741,0,0,0,0,0,0,0,-31.85,51.47,34.21,1.40,0.69,14.40,101142,-17.87,25.80,4,2,74,0,0
2804,0,0,0,0,0,0,0,-30.98,51.10,34.48,3.75,-0.71,12.33,101144,-18.37,25.80,3,2,95,0,0
2853,0,0,0,0,0,0,0,-30.80,50.95,34.62,4.41,-2.65,12.69,101144,-18.29,25.80,5,0,57,0,0
2900,0,0,0,0,0,0,0,-30.62,50.83,34.73,5.09,-3.00,11.99,101146,-18.04,25.80,8,2,47,0,0
2948,0,0,0,0,0,0,0,-30.58,50.75,34.78,5.20,-3.16,12.98,101136,-18.29,25.80,4,0,36,0,0
2996,0,0,0,0,0,0,0,-30.62,50.68,34.83,6.71,-4.85,12.52,101131,-17.37,25.80,4,4,61,0,0
3044,0,0,0,0,0,0,0,-31.00,50.52,34.92,3.56,-5.85,10.75,101142,-17.79,25.80,8,0,36,0,0
3092,0,0,0,0,0,0,0,-31.63,50.21,35.33,3.52,-2.09,12.97,101137,-18.29,25.80,2,4,51,0,0
3156,0,0,0,0,0,0,0,-32.18,50.06,35.65,6.61,1.22,13.25,101137,-18.37,25.80,6,1,52,0,0
3205,0,0,0,0,0,0,0,-32.40,49.90,35.66,4.37,1.43,13.97,101136,-18.54,25.80,6,1,136,0,0
3255,0,0,0,0,0,0,0,-32.18,49.64,35.76,2.21,0.54,12.38,101134,-18.29,25.80,2,2,27,0,0
3300,0,0,0,0,0,0,0,-32.02,49.51,35.92,3.43,0.38,10.78,101140,-18.37,25.80,3,4,46,0,0
3349,0,0,0,0,0,0,0,-31.65,49.48,35.84,5.80,-2.01,9.48,101140,-18.04,25.80,10,0,34,0,0
3401,0,0,0,0,0,0,0,-31.23,48.77,36.32,5.51,-2.56,7.38,101136,-18.12,25.80,3,1,148,0,0
3445,0,0,0,0,0,0,0,-31.96,47.33,37.57,8.63,-8.19,12.20,101142,-18.62,25.80,8,1,108,0,0
3492,0,0,0,0,0,0,0,-33.93,46.20,38.95,9.15,-5.82,12.16,101137,-17.87,25.80,9,2,100,0,0
3556,0,1,0,0,0,0,0,-36.04,45.47,40.28,7.22,-3.24,12.79,101137,-18.79,25.80,9,1,76,0,0
3604,0,1,0,0,0,0,0,-36.92,45.23,40.72,6.53,-2.25,11.91,101139,-17.62,25.80,8,1,21,0,0
3652,0,1,0,0,0,0,0,-37.08,45.76,40.32,2.70,-1.89,16.89,101136,-17.79,25.80,6,0,60,0,0
3701,0,1,0,0,0,0,0,-36.03,47.67,38.34,5.65,1.11,3.53,101134,-17.87,25.80,10,0,146,0,0
3749,0,1,0,0,0,0,0,-32.41,49.00,35.93,5.75,-2.32,14.54,101142,-18.54,25.80,7,2,63,0,0
3796,0,1,0,0,0,0,0,-31.74,49.12,35.33,7.06,-2.72,7.26,101143,-18.62,25.80,8,1,56,0,0
3844,0,1,0,0,0,0,0,-32.21,49.15,35.25,4.79,-1.23,7.71,101134,-17.87,25.80,4,3,59,0,0
3892,0,1,0,0,0,0,0,-33.33,49.25,35.42,6.23,-3.62,9.09,101140,-18.37,25.80,8,3,68,0,0
3956,0,1,0,0,0,0,0,-34.57,48.99,35.74,5.97,-5.78,7.50,101131,-18.54,25.80,4,0,64,0,0
4004,0,1,0,0,0,0,0,-35.54,48.68,36.13,5.63,-2.54,9.40,101139,-18.29,25.80,1,2,66,0,0
4052,0,1,0,0,0,0,0,-35.74,48.79,36.23,7.20,-0.60,6.89,101136,-18.29,25.80,3,2,47,0,0
4100,0,1,0,0,0,0,0,-35.26,48.88,36.21,6.11,-0.34,7.87,101139,-17.87,25.80,0,2,54,0,0
4149,0,1,0,0,0,0,0,-34.60,48.91,36.08,5.89,-3.34,6.54,101140,-18.62,25.80,1,0,54,0,0
4196,0,1,0,0,0,0,0,-35.23,49.09,36.06,4.55,-4.02,7.00,101137,-18.04,25.80,4,1,67,0,0
4244,0,1,0,0,0,0,0,-36.39,49.62,35.73,5.26,-3.76,7.31,101137,-18.37,25.80,3,0,70,0,0
4292,0,1,0,0,0,0,0,-37.52,50.20,35.44,11.15,-3.52,7.96,101143,-18.04,25.80,5,4,55,0,0
4357,0,1,0,0,0,0,0,-37.88,50.31,35.48,10.66,-0.13,4.55,101145,-18.29,25.80,8,0,56,0,0
4404,0,1,0,0,0,0,0,-36.48,49.49,35.77,9.85,4.11,9.30,101140,-18.62,25.80,7,0,59,0,0
4453,0,1,0,0,0,0,0,-32.98,49.27,35.19,8.85,-1.52,9.23,101140,-18.12,25.80,8,0,64,0,0
4500,0,1,0,0,0,0,0,-31.59,49.11,35.18,10.81,-3.10,1.87,101139,-17.87,25.80,0,4,71,0,0
4548,0,1,0,0,0,0,0,-31.21,48.60,35.26,2.18,2.11,7.61,101137,-18.04,25.80,5,0,50,0,0
4601,0,1,0,0,0,0,0,-30.19,48.26,35.13,-0.37,-3.18,6.82,101139,-18.04,25.80,3,0,47,0,0
4644,0,1,0,0,0,0,0,-29.69,48.14,35.16,2.07,-2.17,5.20,101146,-18.12,25.80,8,2,47,0,0
4708,0,1,0,0,0,0,0,-29.66,48.02,35.39,5.50,-0.17,6.53,101143,-18.04,25.80,3,0,62,0,0
4756,0,1,0,0,0,0,0,-29.23,47.83,35.52,5.82,-2.81,5.67,101139,-18.04,25.80,1,0,67,0,0
4804,0,1,0,0,0,0,0,-29.31,47.64,35.76,6.42,-3.09,4.42,101134,-18.04,25.80,5,0,59,0,0
4853,0,1,0,0,0,0,0,-29.87,47.53,36.07,4.65,-1.34,4.91,101136,-17.62,25.80,2,0,62,0,0
4900,0,1,0,0,0,0,0,-30.27,47.45,36.37,6.27,2.03,6.57,101134,-18.29,25.80,3,4,63,0,0
4949,0,1,0,0,0,0,0,-29.19,47.11,36.70,10.52,-0.96,6.87,101134,-17.87,25.80,8,1,75,0,0
4996,0,1,0,0,0,0,0,-27.45,45.98,37.81,8.44,-10.22,3.28,101139,-17.87,25.80,12,0,70,0,0
5044,0,1,0,0,0,0,0,-27.62,45.99,37.84,10.34,-9.43,0.18,101136,-17.79,25.80,7,0,48,0,0
5108,0,1,0,0,0,0,0,-29.84,46.73,37.35,10.03,-1.78,5.37,101134,-18.04,25.80,8,0,48,0,0
5156,0,1,0,0,0,0,0,-30.21,46.88,36.79,5.61,0.03,7.21,101131,-17.62,25.80,4,0,48,0,0
5204,0,1,0,0,0,0,0,-30.44,46.61,36.82,7.50,1.01,5.58,101139,-18.12,25.80,6,4,47,0,0
5252,0,1,0,0,0,0,0,-30.78,46.35,37.02,5.23,0.89,7.29,101143,-18.62,25.80,4,0,70,0,0
5300,0,1,0,0,0,0,0,-30.82,45.92,37.34,3.64,2.75,7.32,101145,-18.37,25.80,7,0,75,0,0
5348,0,1,0,0,0,0,0,-30.48,45.55,37.57,4.91,1.24,7.28,101136,-18.29,25.80,5,1,87,0,0
5396,0,1,0,0,0,0,0,-30.07,45.37,37.70,8.45,-2.46,5.42,101137,-18.12,25.80,3,0,79,0,0
5444,0,1,0,0,0,0,0,-29.92,45.19,37.95,9.42,-6.28,4.07,101142,-18.37,25.80,4,2,75,0,0
5509,0,1,0,0,0,0,0,-30.13,44.99,38.23,9.22,-6.94,3.64,101136,-18.29,25.80,8,3,61,0,0
5556,0,1,0,0,0,0,0,-30.68,44.77,38.65,10.33,-4.31,4.26,101140,-18.29,25.80,3,0,68,0,0
5604,0,1,0,0,0,0,0,-31.10,44.53,38.99,10.97,-2.75,5.43,101139,-17.62,25.80,13,0,60,0,0
5652,0,1,0,0,0,0,0,-31.39,44.21,39.20,7.54,-3.89,6.19,101133,-18.12,25.80,10,2,58,0,0
5700,0,1,0,0,0,0,0,-31.64,43.80,39.58,6.67,-3.24,6.38,101136,-18.04,25.80,12,0,52,0,0
5748,0,1,0,0,0,0,0,-31.93,43.43,39.99,7.92,-1.57,5.89,101137,-18.29,25.80,12,0,52,0,0
5796,0,1,0,0,0,0,0,-32.04,43.04,40.35,6.96,-0.74,5.63,101142,-18.62,25.80,7,0,46,0,0
5844,0,1,0,0,0,0,0,-32.04,42.72,40.62,6.55,-1.27,6.83,101139,-18.12,25.80,10,2,55,0,0
5908,0,1,0,0,0,0,0,-32.06,42.53,40.78,7.69,-1.92,5.98,101142,-18.79,25.80,11,0,49,0,0
5956,0,1,0,0,0,0,0,-32.16,42.45,40.84,8.55,-1.89,6.61,101137,-18.29,25.80,7,0,40,0,0
6004,0,1,0,0,0,0,0,-32.31,42.47,40.80,7.84,-1.91,6.33,101134,-18.04,25.80,11,0,36,0,0
6052,0,1,0,0,0,0,0,-32.45,42.54,40.75,7.68,-1.62,6.16,101137,-18.29,25.80,14,0,36,0,0
6100,0,1,0,0,0,0,0,-32.50,42.58,40.72,7.18,-1.53,5.86,101145,-18.62,25.80,12,0,34,0,0
6148,0,1,0,0,0,0,0,-32.46,42.61,40.68,7.60,-1.76,6.34,101147,-18.62,25.80,12,1,40,0,0
6196,0,1,0,0,0,0,0,-32.42,42.69,40.57,8.16,-2.00,6.04,101140,-18.54,25.80,10,4,43,0,0
6260,0,1,0,0,0,0,0,-32.34,42.76,40.41,8.08,-2.45,6.37,101134,-17.37,25.80,10,1,41,0,0
6308,0,1,0,0,0,0,0,-32.32,42.93,40.18,9.15,-3.28,5.96,101139,-17.87,25.80,12,4,47,0,0
6356,0,1,0,0,0,0,0,-32.32,43.07,39.94,8.96,-3.57,5.81,101128,-17.37,25.80,7,0,40,0,0
6404,0,1,0,0,0,0,0,-32.34,43.19,39.74,8.74,-3.51,5.78,101140,-18.62,25.80,11,0,37,0,0
6452,0,1,0,0,0,0,0,-32.44,43.34,39.56,8.66,-3.22,5.27,101137,-17.87,25.80,14,2,39,0,0
6500,0,1,0,0,0,0,0,-32.56,43.45,39.43,8.43,-3.33,5.75,101134,-17.54,25.80,12,0,48,0,0
6548,0,1,0,0,0,0,0,-32.61,43.50,39.35,8.86,-2.84,5.94,101131,-17.54,25.80,16,2,43,0,0
6596,0,1,0,0,0,0,0,-32.52,43.46,39.27,8.96,-3.17,5.89,101140,-18.29,25.80,12,0,41,0,0
6660,0,1,0,0,0,0,0,-32.55,43.45,39.22,8.67,-3.43,5.53,101131,-17.87,25.80,10,1,41,0,0
6708,0,1,0,0,0,0,0,-32.74,43.52,39.20,8.74,-3.12,5.89,101128,-17.62,25.80,9,0,37,1,0
6756,0,1,0,0,0,0,0,-32.89,43.54,39.20,8.56,-2.79,5.79,101133,-17.87,25.80,9,0,42,1,0
6805,0,1,0,0,0,0,0,-33.01,43.51,39.23,8.32,-2.40,5.48,101137,-18.29,25.80,11,0,37,1,0
6852,0,1,0,0,0,0,0,-33.15,43.49,39.27,7.83,-1.92,5.79,101136,-18.29,25.80,11,0,44,1,0
6900,0,1,0,0,0,0,0,-33.30,43.52,39.28,8.09,-2.19,5.50,101136,-17.87,25.80,9,0,45,1,0
6948,0,1,0,0,0,0,0,-33.45,43.55,39.28,8.47,-2.48,5.33,101133,-18.04,25.80,10,0,49,1,0
6996,0,1,0,0,0,0,0,-33.58,43.51,39.34,7.95,-2.38,5.74,101134,-17.62,25.80,10,0,41,1,0
7060,0,1,0,0,0,0,0,-33.66,43.46,39.41,8.30,-2.01,5.68,101133,-17.79,25.80,11,0,44,1,0
7108,0,1,0,0,0,0,0,-33.78,43.46,39.42,8.32,-2.33,5.35,101137,-17.87,25.80,11,0,45,1,0
7156,0,1,0,0,0,0,0,-33.93,43.47,39.45,8.04,-2.24,5.29,101134,-17.37,25.80,10,0,44,1,0
7204,0,1,0,0,0,0,0,-34.07,43.48,39.49,8.10,-2.12,5.20,101133,-17.79,25.80,11,0,48,1,0
7252,0,1,0,0,0,0,0,-34.21,43.49,39.53,7.84,-1.92,5.37,101134,-17.21,25.80,11,0,48,1,0
7300,0,1,0,0,0,0,0,-34.33,43.50,39.57,7.57,-1.67,5.33,101127,-17.62,25.80,9,0,50,1,0
7348,0,1,0,0,0,0,0,-34.41,43.54,39.56,8.18,-2.01,5.35,101131,-17.79,25.80,7,0,49,1,0
7412,0,1,0,0,0,0,0,-34.54,43.61,39.48,8.60,-2.32,5.13,101136,-18.04,25.80,9,0,47,1,0
7460,0,1,0,0,0,0,0,-34.62,43.66,39.39,7.70,-2.43,4.59,101137,-19.12,25.80,9,0,48,1,0
7508,0,1,0,0,0,0,0,-34.71,43.70,39.34,8.05,-1.73,4.68,101136,-18.04,25.80,9,0,45,1,0
7556,0,1,0,0,0,0,0,-34.83,43.79,39.27,8.24,-1.84,4.71,101136,-17.62,25.80,7,0,45,1,0
7604,0,1,0,0,0,0,0,-34.90,43.82,39.25,7.50,-2.39,5.00,101139,-18.04,25.80,7,0,45,1,0
7652,0,1,0,0,0,0,0,-34.91,43.79,39.33,8.80,-3.60,4.62,101131,-18.12,25.80,6,0,44,1,0
7700,0,1,0,0,0,0,0,-34.95,43.67,39.50,9.43,-3.13,5.70,101131,-17.62,25.80,6,0,45,1,0
7748,0,1,0,0,0,0,0,-34.94,43.57,39.61,8.56,-1.67,4.40,101133,-17.87,25.80,8,0,42,1,0
7811,0,1,0,0,0,0,0,-34.98,43.61,39.65,7.70,-1.76,3.93,101137,-18.04,25.80,6,0,28,1,0
7860,0,1,0,0,0,0,0,-35.14,43.86,39.46,5.76,-2.70,4.94,101130,-17.54,25.80,12,2,33,0,0
7908,0,1,0,0,0,0,0,-35.41,44.37,38.75,2.71,-5.68,5.96,101133,-17.87,25.80,7,0,23,0,0
7958,0,1,0,0,0,0,0,-36.45,45.62,37.47,3.43,-4.34,3.31,101134,-18.12,25.80,7,0,30,0,0
8004,0,1,0,0,0,0,0,-38.55,47.50,35.88,5.21,8.85,4.84,101133,-18.54,25.80,7,4,29,0,0
8051,0,1,0,0,0,0,0,-40.36,49.31,34.40,6.17,12.61,6.81,101134,-17.79,25.80,8,0,30,0,0
8100,0,1,0,0,0,0,0,-41.20,50.36,33.68,7.15,2.01,4.35,101137,-18.04,25.80,11,0,29,0,0
8148,0,1,0,0,0,0,0,-41.42,50.99,33.20,5.79,1.89,1.23,101136,-18.04,25.80,12,0,26,0,0
8212,0,1,0,0,0,0,0,-40.74,51.50,32.20,5.61,2.85,1.32,101130,-17.79,25.80,11,0,29,0,0
8260,0,1,0,0,0,0,0,-39.76,51.71,31.28,6.59,0.75,4.60,101134,-18.37,25.80,8,2,27,0,0
8308,0,1,0,0,0,0,0,-38.48,51.66,30.95,9.61,-5.88,4.88,101140,-18.37,25.80,16,1,27,0,0
8356,0,1,0,0,0,0,0,-37.31,50.98,31.48,8.67,-9.74,0.24,101136,-18.37,25.80,10,0,31,0,0
8404,0,1,0,0,0,0,0,-36.91,49.94,32.66,6.93,-7.80,-0.03,101139,-18.29,25.80,15,0,30,0,0
8452,0,1,0,0,0,0,0,-36.64,48.70,34.10,10.43,1.08,6.34,101134,-17.87,25.80,16,3,48,0,0
8500,0,1,0,0,0,0,0,-41.28,49.62,36.32,5.86,7.82,-1.87,101139,-17.62,25.80,14,0,123,0,0
8564,0,1,0,0,0,0,0,-40.40,48.07,38.37,4.49,0.06,12.46,101126,-17.04,25.80,8,1,98,0,0
8611,0,1,0,0,0,0,0,-38.69,48.33,37.42,4.03,-10.21,1.72,101130,-18.04,25.80,9,0,51,0,0
8660,0,1,0,0,0,0,0,-36.42,47.96,35.74,-0.50,-4.93,1.70,101139,-17.87,25.80,7,0,52,1,0
8707,0,1,0,0,0,0,0,-36.50,48.11,35.18,1.46,0.96,0.24,101136,-17.79,25.80,6,0,46,1,0
8755,0,1,0,0,0,0,0,-37.95,48.76,34.71,-4.05,11.47,7.69,101131,-17.29,25.80,4,0,69,1,0
8803,0,1,0,0,0,0,0,-37.37,49.11,33.92,-4.90,11.33,-2.26,101130,-17.87,25.80,6,4,47,0,0
8851,0,1,0,0,0,0,0,-36.94,49.92,33.02,-1.39,4.16,-4.92,101127,-17.62,25.80,5,1,60,0,0
8905,0,0,0,0,0,0,0,-38.02,50.62,33.12,3.65,3.69,-1.49,101130,-18.12,25.80,3,4,47,0,0
8964,0,0,0,0,0,0,0,-38.52,49.88,34.31,15.07,-0.31,2.92,101137,-17.54,25.80,4,4,55,0,0
9011,0,0,0,0,0,0,0,-38.71,49.12,35.37,41.23,-7.44,5.59,101137,-18.29,25.80,5,0,55,0,0
9060,0,0,0,0,0,0,0,-39.85,48.53,35.54,9.19,-24.10,21.83,101133,-17.62,25.80,0,0,21,0,0
9108,1,0,0,0,0,0,0,-39.84,47.75,35.85,7.33,-21.33,-2.22,101136,-18.37,25.80,4,0,46,1,0
9155,1,0,0,0,0,0,0,-40.46,47.09,37.14,30.91,-18.03,0.17,101130,-17.37,25.80,4,0,36,1,0
9203,1,0,0,0,0,0,0,-42.21,46.67,38.06,18.14,-12.42,0.59,101133,-17.87,25.80,5,0,41,1,0
9251,1,0,0,0,0,0,0,-43.93,46.34,38.53,14.56,-8.68,-2.96,101136,-18.12,25.80,7,0,104,1,0
9299,1,0,0,0,0,0,0,-45.59,46.19,39.19,10.63,-3.55,0.69,101136,-18.04,25.80,6,0,78,1,0
9363,1,0,0,0,0,0,0,-47.03,45.81,39.72,7.80,-8.09,0.67,101136,-18.04,25.80,8,0,78,1,0
9411,1,0,0,0,0,0,0,-48.65,45.82,39.99,9.96,-5.28,0.21,101136,-17.62,25.80,9,0,50,1,0
9459,1,0,0,0,0,0,0,-50.42,45.98,40.12,11.04,-1.37,5.07,101140,-18.12,25.80,9,0,69,1,0
9508,1,0,0,0,0,0,0,-52.25,45.73,40.18,8.22,-4.76,2.06,101139,-18.04,25.80,9,0,41,1,0
9558,1,0,0,0,0,0,0,-54.05,45.53,40.25,6.64,-1.06,-9.11,101136,-17.87,25.80,9,0,45,1,0
9603,1,0,0,0,0,0,0,-55.51,45.86,40.40,7.76,-3.99,-7.12,101136,-17.79,25.80,11,0,30,1,0
9651,1,0,0,0,0,0,0,-56.97,46.34,40.69,23.35,-17.57,7.16,101134,-18.04,25.80,9,0,37,1,0
9699,1,0,0,0,0,0,0,-58.17,46.69,41.30,26.14,-9.06,26.06,101134,-17.79,25.80,12,0,26,1,0
9763,1,0,0,0,0,0,0,-60.50,47.79,40.67,5.34,4.31,16.55,101143,-18.04,25.80,10,0,23,1,0
9811,1,0,0,0,0,0,0,-66.24,49.79,38.70,-2.05,-7.70,23.68,101136,-18.04,25.80,7,0,91,0,0
9859,1,0,0,0,0,0,0,-72.76,51.78,36.94,-2.27,5.86,29.82,101142,-18.54,25.80,8,0,56,0,0
9907,1,0,0,0,0,0,0,-80.36,53.16,35.22,-3.24,3.28,18.01,101139,-18.12,25.80,9,2,52,0,0
9956,1,0,0,0,0,0,0,-86.91,54.61,33.52,-4.55,-6.20,17.41,101136,-18.12,25.80,6,0,39,1,0
10004,1,0,0,0,0,0,0,-95.54,55.67,32.48,-2.15,-3.80,27.51,101142,-17.79,25.80,6,0,51,1,0
10051,1,0,0,0,0,0,0,-107.12,56.21,31.78,-2.53,-1.80,20.29,101139,-18.04,25.80,9,0,79,1,0
10115,1,0,0,0,0,0,0,-121.59,56.01,31.96,-4.95,-2.77,22.57,101133,-17.87,25.80,10,0,45,1,0
10163,1,0,0,0,0,0,0,-133.27,55.31,32.65,-2.58,-4.55,31.28,101136,-17.87,25.80,9,0,25,0,0
10211,1,0,0,0,0,0,0,-139.04,54.69,33.02,-2.64,-8.09,18.67,101134,-18.04,25.80,15,0,108,0,0
10259,0,0,0,0,0,0,0,-149.47,53.64,34.09,3.14,-10.03,17.87,101133,-18.04,25.80,18,2,75,0,0
10307,0,0,0,0,0,0,0,-159.06,52.47,35.63,7.59,-2.92,10.63,101142,-17.79,25.80,17,1,64,0,0
10355,0,0,0,0,0,0,0,-169.47,50.74,37.50,2.25,-8.76,15.73,101134,-17.37,25.80,15,2,43,0,0
10403,0,0,0,0,0,0,0,-176.81,48.82,39.52,1.24,-20.48,16.74,101133,-18.04,25.80,22,0,42,0,0
10451,0,0,0,0,0,0,0,172.58,46.94,41.69,-2.15,-21.75,9.76,101136,-17.79,25.80,32,0,41,0,0
10515,0,0,0,0,0,0,0,160.78,45.44,43.62,0.76,-8.99,21.02,101134,-17.79,25.80,25,0,41,0,0
10563,0,0,0,0,0,0,0,157.27,43.99,45.22,5.05,-14.17,22.42,101137,-18.04,25.80,23,4,31,0,0
10612,0,0,0,0,0,0,0,154.24,43.05,46.34,6.49,-22.61,16.51,101137,-18.29,25.80,34,2,44,0,0
10659,0,0,0,0,0,0,0,150.58,42.12,47.44,7.04,-10.86,21.10,101131,-18.29,25.80,31,2,41,0,0
10707,0,0,0,0,0,0,0,147.96,41.99,47.67,16.20,3.50,10.42,101139,-18.54,25.80,39,0,92,0,0
10755,0,0,0,0,0,0,0,162.05,37.77,50.71,8.82,6.42,11.40,101139,-18.04,25.80,40,2,0,0,0
10803,0,0,0,0,0,0,0,160.44,35.04,53.68,3.62,-9.28,12.97,101133,-17.79,25.80,40,0,1,0,0
10851,0,0,0,0,0,0,0,161.03,32.61,56.18,7.94,-2.38,19.65,101136,-18.04,25.80,38,0,4,0,0
10915,0,0,0,0,0,0,0,163.96,29.54,59.06,6.95,-5.65,20.39,101134,-17.79,25.80,26,0,0,0,0
10965,0,0,0,0,0,0,0,168.98,26.04,61.83,15.43,5.13,27.09,101136,-17.87,25.80,27,0,4,0,0
11011,0,0,0,0,0,0,0,178.63,22.71,62.27,26.09,21.60,16.03,101137,-18.29,25.80,14,4,3,0,0
11059,0,0,0,0,0,0,0,176.39,20.96,64.79,7.04,13.63,34.87,101134,-17.37,25.80,11,0,8,0,0
11108,0,0,1,0,0,0,0,-179.03,19.67,64.40,15.88,23.61,14.66,101136,-17.87,25.80,0,4,3,0,0
11157,0,0,1,0,0,0,0,-177.24,18.78,64.52,7.15,6.19,19.64,101139,-18.12,25.80,1,0,8,0,0
11204,0,0,1,0,0,0,0,-175.77,18.12,64.61,13.41,3.41,18.89,101131,-18.04,25.80,0,2,7,0,0
11267,0,0,1,0,0,0,0,-174.04,17.27,64.54,10.10,-3.61,16.00,101131,-18.04,25.80,0,0,5,0,0
11315,0,0,1,0,0,0,0,-173.21,16.24,64.88,7.90,-4.78,17.16,101140,-18.29,25.80,0,4,4,0,0
11363,0,0,1,0,0,0,0,-172.74,14.98,65.71,6.27,-2.92,15.70,101134,-18.04,25.80,0,1,0,0,0
11411,0,0,1,0,0,0,0,-172.11,13.98,66.51,9.45,-5.18,14.52,101136,-17.54,25.80,2,0,0,0,0
11459,0,0,1,0,0,0,0,-171.88,13.59,66.66,7.03,-1.01,13.46,101142,-18.37,25.80,0,0,0,0,0
11507,0,0,1,0,0,0,0,-172.10,13.99,66.50,7.10,0.38,15.68,101140,-17.79,25.80,0,1,0,0,0
11555,0,0,1,0,0,0,0,-173.25,14.76,66.29,5.86,-1.55,18.26,101139,-17.87,25.80,0,0,2,0,0
11603,0,0,1,0,0,0,0,-174.47,15.35,66.31,15.59,-5.33,17.62,101137,-17.79,25.80,0,0,2,0,0
11667,0,0,1,0,0,0,0,-175.66,15.72,66.25,8.25,-2.58,16.94,101131,-17.62,25.80,4,0,0,0,0
11715,0,0,1,0,0,0,0,-176.52,16.03,66.29,9.67,-1.41,14.58,101134,-17.79,25.80,0,0,2,0,0
11763,0,0,1,0,0,0,0,-177.21,16.30,66.35,10.21,0.61,14.26,101136,-17.79,25.80,3,0,0,0,0
11811,0,0,1,0,0,0,0,-177.74,16.60,66.20,10.79,-1.51,13.99,101133,-18.37,25.80,0,0,0,0,0
11859,0,0,1,0,0,0,0,-178.36,16.95,65.93,10.17,-2.13,13.77,101137,-17.79,25.80,1,0,0,0,0
11907,0,0,1,0,0,0,0,-178.99,17.22,65.76,10.06,-2.70,13.64,101139,-18.29,25.80,4,0,0,0,0
11955,0,0,1,0,0,0,0,-179.25,17.23,65.72,9.46,-2.85,13.90,101142,-17.87,25.80,6,0,0,0,0
12003,0,0,1,0,0,0,0,-179.75,17.34,65.74,9.12,-0.79,12.66,101134,-17.87,25.80,3,4,0,0,0
12067,0,0,1,0,0,0,0,179.63,17.41,65.91,7.00,-0.79,12.49,101137,-17.79,25.80,8,0,0,0,0
12115,0,0,1,0,0,0,0,179.19,17.45,66.02,7.02,-1.07,11.75,101143,-18.29,25.80,9,1,0,0,0
12164,0,0,1,0,0,0,0,178.77,17.51,66.12,8.32,0.28,11.77,101142,-17.87,25.80,7,0,0,0,0
12211,0,0,1,0,0,0,0,178.53,17.55,66.13,8.53,0.07,11.57,101134,-17.87,25.80,7,1,4,0,0
12259,0,0,1,0,0,0,0,178.44,17.54,66.10,8.37,-0.57,11.47,101137,-18.12,25.80,8,2,0,0,0
12307,0,0,1,0,0,0,0,178.51,17.47,66.02,8.36,-0.05,11.15,101130,-18.12,25.80,3,1,2,0,0
12355,0,0,1,0,0,0,0,178.61,17.44,65.92,8.55,-0.30,11.45,101142,-18.12,25.80,7,1,0,0,0
12403,0,0,1,0,0,0,0,178.73,17.44,65.74,9.01,-0.52,11.34,101137,-18.04,25.80,7,0,3,0,0
12467,0,0,1,0,0,0,0,178.83,17.47,65.56,8.66,-0.92,11.56,101139,-18.37,25.80,10,2,1,0,0
12515,0,0,1,0,0,0,0,178.95,17.48,65.38,8.55,-0.82,11.50,101139,-17.79,25.80,16,0,1,0,0
12563,0,0,1,0,0,0,0,179.05,17.51,65.22,7.93,-0.92,11.46,101136,-18.29,25.80,10,0,0,0,0
12611,0,0,1,0,0,0,0,179.07,17.55,65.09,7.75,-0.64,11.41,101139,-18.29,25.80,9,1,1,0,0
12659,0,0,1,0,0,0,0,179.05,17.62,64.97,7.84,-0.70,11.20,101142,-18.29,25.80,9,2,2,0,0
12707,0,0,1,0,0,0,0,178.99,17.72,64.85,8.07,-0.20,10.87,101142,-18.12,25.90,9,4,1,0,0
12755,0,0,1,0,0,0,0,178.89,17.85,64.74,8.25,-0.17,10.70,101148,-19.12,25.80,10,2,1,0,0
12819,0,0,1,0,0,0,0,178.80,18.00,64.59,7.74,-0.37,10.82,101139,-18.54,25.80,10,4,0,0,0
12867,0,0,1,0,0,0,0,178.72,18.14,64.47,7.50,-0.23,10.71,101140,-18.37,25.80,7,4,0,0,0
12915,0,0,1,0,0,0,0,178.70,18.21,64.36,6.97,0.02,11.77,101140,-18.37,25.80,10,1,0,0,0
12963,0,0,1,0,0,0,0,178.67,18.27,64.30,7.19,-0.30,10.12,101139,-18.37,25.80,12,2,0,0,0
13011,0,0,1,0,0,0,0,178.71,18.35,64.16,7.80,-0.70,11.09,101136,-18.37,25.80,7,2,3,0,0
13059,0,0,1,0,0,0,0,178.63,18.44,64.08,8.05,-0.85,10.95,101134,-17.79,25.80,7,0,0,0,0
13107,0,0,1,0,0,0,0,178.55,18.50,64.05,7.79,-0.53,10.47,101142,-18.29,25.80,7,1,0,0,0
13155,0,0,1,0,0,0,0,178.52,18.50,64.03,7.65,-0.05,10.22,101137,-18.37,25.80,7,1,2,0,0
13219,0,0,1,0,0,0,0,178.49,18.53,63.97,7.94,-0.10,10.34,101140,-18.79,25.80,6,2,0,0,0
13267,0,0,1,0,0,0,0,178.48,18.53,63.89,7.65,-0.10,10.19,101143,-18.54,25.80,10,0,0,0,0
13315,0,0,1,0,0,0,0,178.43,18.54,63.83,7.57,-0.21,10.03,101140,-18.12,25.80,9,2,1,0,0
13363,0,0,1,0,0,0,0,178.38,18.53,63.78,7.70,-0.09,9.94,101142,-18.62,25.80,12,0,0,0,0
13411,0,0,1,0,0,0,0,178.34,18.53,63.72,7.63,-0.02,9.99,101142,-17.87,25.80,12,4,0,0,0
13459,0,0,1,0,0,0,0,178.29,18.51,63.68,7.45,0.02,9.89,101139,-18.37,25.80,7,1,1,0,0
13507,0,0,1,0,0,0,0,178.21,18.52,63.62,7.28,0.07,9.74,101148,-18.54,25.80,7,1,3,0,0
13555,0,0,1,0,0,0,0,178.09,18.54,63.61,7.19,0.02,9.78,101142,-18.12,25.80,11,2,0,0,0
13619,0,0,1,0,0,0,0,177.97,18.54,63.60,7.25,-0.05,9.83,101140,-18.37,25.90,16,2,1,0,0
13667,0,0,1,0,0,0,0,177.85,18.55,63.59,7.33,0.00,9.60,101145,-18.37,25.80,11,0,4,0,0
13715,0,0,1,0,0,0,0,177.70,18.57,63.60,7.47,0.25,9.62,101137,-18.62,25.80,9,4,1,0,0
13763,0,0,1,0,0,0,0,177.52,18.59,63.61,7.37,0.01,9.79,101142,-18.79,25.80,7,2,3,0,0
13811,0,0,1,0,0,0,0,177.35,18.60,63.63,7.39,0.28,9.33,101139,-18.54,25.90,12,0,0,0,0
13859,0,0,1,0,0,0,0,177.19,18.60,63.64,7.26,0.22,9.43,101146,-18.79,25.80,11,1,3,0,0
13907,0,0,1,0,0,0,0,177.03,18.61,63.65,7.28,0.28,9.24,101143,-18.29,25.80,12,1,0,0,0
13971,0,0,1,0,0,0,0,176.88,18.62,63.67,7.32,0.43,9.35,101139,-18.37,25.80,16,0,1,0,0
14019,0,0,1,0,0,0,0,176.77,18.61,63.68,7.27,0.56,9.15,101139,-18.29,25.80,11,1,1,0,0
14067,0,0,1,0,0,0,0,176.67,18.61,63.68,7.25,0.36,9.13,101140,-18.37,25.80,13,0,0,0,0
14115,0,0,1,0,0,0,0,176.55,18.62,63.69,7.18,0.51,9.06,101145,-18.29,25.80,13,2,0,0,0
14163,0,0,1,0,0,0,0,176.47,18.62,63.69,6.70,0.44,9.14,101140,-18.37,25.80,18,4,0,0,0
14211,0,0,1,0,0,0,0,176.42,18.63,63.69,6.65,0.36,8.96,101142,-18.29,25.80,15,2,0,0,0
14259,0,0,1,0,0,0,0,176.38,18.65,63.72,6.66,0.98,8.51,101139,-18.29,25.80,20,1,0,0,0
14307,0,0,1,0,0,0,0,176.39,18.68,63.72,5.99,0.99,8.46,101136,-18.29,25.90,18,0,0,0,0
14371,0,0,1,0,0,0,0,176.46,18.74,63.71,5.90,1.32,8.17,101145,-19.05,25.90,20,0,2,0,0
14419,0,0,1,0,0,0,0,176.60,18.80,63.65,5.75,0.98,7.82,101146,-18.62,25.80,16,0,0,0,0
14466,0,0,1,0,0,0,0,176.82,18.87,63.55,5.86,1.16,8.05,101142,-18.37,25.90,16,0,1,0,0
14514,0,0,1,0,0,0,0,177.11,18.95,63.43,6.01,1.07,8.19,101148,-18.54,25.80,14,0,1,0,0
14563,0,0,1,0,0,0,0,177.41,19.07,63.28,6.25,0.85,8.13,101142,-18.29,25.80,12,0,2,0,0
14611,0,0,1,0,0,0,0,177.77,19.19,63.08,6.58,0.68,8.50,101142,-18.29,25.80,11,0,4,0,0
14659,0,0,1,0,0,0,0,178.14,19.32,62.87,6.94,0.76,8.44,101140,-18.37,25.90,12,0,5,0,0
14706,0,0,1,0,0,0,0,178.51,19.45,62.66,7.28,0.59,8.79,101143,-18.62,25.80,12,0,1,0,0
14771,0,0,1,0,0,0,0,178.87,19.56,62.45,7.38,0.31,9.14,101140,-18.79,25.80,3,0,0,0,0
14818,0,0,1,0,0,0,0,179.15,19.67,62.26,7.33,0.56,9.25,101139,-18.29,25.90,0,2,1,0,0
14867,0,0,1,0,0,0,0,179.46,19.75,62.06,7.22,-0.17,9.54,101145,-18.54,25.80,3,1,0,0,0
14915,0,0,1,0,0,0,0,179.61,19.84,61.91,7.61,-0.01,9.60,101136,-18.54,25.80,8,1,1,0,0
14963,0,0,1,0,0,0,0,179.65,19.92,61.80,7.95,0.01,9.59,101140,-18.37,25.90,5,2,2,0,0
15011,0,0,1,0,0,0,0,179.66,19.97,61.68,7.97,-0.40,9.80,101148,-18.88,25.90,4,2,0,0,0
15059,0,0,1,0,0,0,0,179.52,19.98,61.64,7.82,-0.04,9.72,101145,-18.54,25.90,3,0,2,0,0
15106,0,0,1,0,0,0,0,179.27,19.97,61.63,7.89,-0.09,9.77,101146,-18.37,25.80,7,0,4,0,0
15171,0,0,1,0,0,0,0,178.92,19.93,61.68,7.94,-0.02,9.38,101140,-18.12,25.90,5,1,0,0,0
15218,0,0,1,0,0,0,0,178.55,19.85,61.75,7.52,0.00,9.21,101150,-19.12,25.90,14,0,0,0,0
15267,0,0,1,0,0,0,0,178.15,19.74,61.87,6.99,0.00,9.00,101150,-18.79,25.80,14,1,4,0,0
15315,0,0,1,0,0,0,0,177.68,19.63,62.05,6.63,0.63,8.90,101140,-18.29,25.80,16,0,1,0,0
15362,0,0,1,0,0,0,0,177.22,19.51,62.29,6.66,1.02,8.21,101140,-18.37,25.80,18,4,2,0,0
15411,0,0,1,0,0,0,0,176.83,19.38,62.53,6.40,1.63,7.38,101134,-18.37,25.90,20,4,0,0,0
15459,0,0,1,0,0,0,0,176.48,19.26,62.68,6.06,1.27,7.93,101140,-18.79,25.90,19,1,2,0,0
15523,0,0,1,0,0,0,0,176.23,19.13,62.82,5.71,1.08,7.85,101148,-18.79,25.90,15,1,4,0,0
15571,0,0,1,0,0,0,0,175.97,19.02,62.97,5.83,1.20,7.67,101134,-18.79,25.80,23,0,2,0,0
15618,0,0,1,0,0,0,0,175.75,18.96,63.07,6.13,1.39,7.66,101140,-18.29,25.80,24,2,0,0,0
15666,0,0,1,0,0,0,0,175.63,18.90,63.14,6.25,1.19,7.70,101139,-18.37,25.90,26,1,2,0,0
15714,0,0,1,0,0,0,0,175.52,18.87,63.16,6.24,1.27,7.87,101145,-18.62,25.90,22,2,3,0,0
15763,0,0,1,0,0,0,0,175.47,18.87,63.15,6.40,1.04,8.06,101142,-18.54,25.90,28,2,1,0,0
15810,0,0,1,0,0,0,0,175.44,18.88,63.14,6.49,0.69,8.19,101143,-18.62,25.90,26,2,3,0,0
15858,0,0,1,0,0,0,0,175.43,18.90,63.11,6.70,0.70,8.17,101148,-19.38,25.90,21,0,2,0,0
15922,0,0,1,0,0,0,0,175.44,18.93,63.07,6.91,0.83,8.37,101142,-18.29,25.90,20,0,4,0,0
15970,0,0,1,0,0,0,0,175.45,18.97,63.01,7.11,0.58,8.46,101136,-18.54,25.90,21,0,1,0,0
16018,0,0,1,0,0,0,0,175.50,18.99,62.93,7.29,0.63,8.31,101142,-18.54,25.90,12,4,1,0,0
16066,0,0,1,0,0,0,0,175.57,19.01,62.84,7.41,0.47,8.50,101145,-18.62,25.90,13,2,3,0,0
16114,0,0,1,0,0,0,0,175.65,19.01,62.79,7.34,0.93,8.35,101145,-19.12,25.80,18,0,3,0,0
16162,0,0,1,0,0,0,0,175.71,19.02,62.72,6.81,0.52,8.85,101140,-18.88,25.90,15,2,3,0,0
16210,0,0,1,0,0,0,0,175.75,19.05,62.62,6.80,-0.26,9.18,101148,-19.05,25.90,15,0,2,0,0
16258,0,0,1,0,0,0,0,175.70,19.09,62.56,7.19,0.26,8.86,101146,-18.62,25.80,18,2,1,0,0
16324,0,0,1,0,0,0,0,175.63,19.14,62.52,7.50,0.35,8.79,101140,-18.37,25.80,13,2,0,0,0
16370,0,0,1,0,0,0,0,175.53,19.18,62.51,7.46,0.33,8.65,101140,-18.54,25.80,15,0,2,0,0
16418,0,0,1,0,0,0,0,175.45,19.20,62.52,7.02,0.63,8.59,101142,-18.37,25.80,14,0,2,0,0
16466,0,0,1,0,0,0,0,175.37,19.20,62.55,6.79,0.49,8.55,101140,-18.04,25.80,16,0,0,0,0
16514,0,0,1,0,0,0,0,175.25,19.21,62.57,7.02,0.54,8.61,101139,-18.54,25.80,16,2,0,0,0
16562,0,0,1,0,0,0,0,175.15,19.23,62.59,7.14,0.63,8.61,101142,-18.54,25.90,15,2,2,0,0
16610,0,0,1,0,0,0,0,175.07,19.22,62.59,7.05,0.65,8.53,101146,-18.79,25.90,16,0,2,0,0
16674,0,0,1,0,0,0,0,175.00,19.20,62.61,6.89,0.47,8.63,101142,-18.79,25.90,19,0,4,0,0
16722,0,0,1,0,0,0,0,174.93,19.17,62.63,6.70,0.66,8.36,101140,-18.54,25.90,15,2,1,0,0
16770,0,0,1,0,0,0,0,174.84,19.15,62.66,6.82,0.75,8.45,101143,-18.29,25.90,18,1,0,0,0
16818,0,0,1,0,0,0,0,174.75,19.14,62.68,7.02,0.66,8.45,101143,-18.54,25.80,15,1,2,0,0
16866,0,0,1,0,0,0,0,174.67,19.12,62.69,7.02,0.77,8.20,101140,-18.62,25.80,19,4,0,0,0
16914,0,0,1,0,0,0,0,174.58,19.12,62.69,6.90,0.77,8.33,101142,-18.12,25.80,15,4,0,0,0
16962,0,0,1,0,0,0,0,174.50,19.12,62.69,6.89,0.79,8.39,101140,-18.29,25.90,15,2,1,0,0
17010,0,0,1,0,0,0,0,174.41,19.13,62.69,6.99,0.74,8.45,101145,-18.62,25.90,20,1,0,0,0
17074,0,0,1,0,0,0,0,174.34,19.13,62.68,6.80,0.59,8.53,101139,-18.29,25.80,18,4,1,0,0
17122,0,0,1,0,0,0,0,174.28,19.12,62.67,6.89,0.73,8.32,101136,-17.87,25.80,12,1,0,0,0
17172,0,0,1,0,0,0,0,174.21,19.12,62.67,6.83,0.69,8.37,101136,-18.29,25.90,18,2,0,0,0
17218,0,0,1,0,0,0,0,174.15,19.12,62.66,6.99,0.85,8.28,101140,-18.79,25.90,11,2,0,0,0
17266,0,0,1,0,0,0,0,174.13,19.11,62.63,6.98,0.71,8.42,101148,-18.79,25.90,11,2,3,0,0
17314,0,0,1,0,0,0,0,174.11,19.09,62.60,6.97,0.71,8.40,101146,-18.88,25.90,13,2,0,0,0
17362,0,0,1,0,0,0,0,174.10,19.06,62.57,6.83,0.64,8.50,101139,-18.54,25.90,13,2,4,0,0
17410,0,0,1,0,0,0,0,174.08,19.04,62.55,6.92,0.53,8.38,101145,-18.54,25.90,16,1,0,0,0
17474,0,0,1,0,0,0,0,174.04,19.04,62.54,7.02,0.74,8.35,101137,-18.29,25.90,13,1,1,0,0
17522,0,0,1,0,0,0,0,174.00,19.05,62.52,7.04,0.64,8.48,101142,-18.54,25.90,15,1,1,0,0
17570,0,0,1,0,0,0,0,173.93,19.06,62.52,7.06,0.55,8.42,101145,-18.88,25.90,16,1,0,0,0
17618,0,0,1,0,0,0,0,173.87,19.07,62.51,6.86,0.63,8.54,101139,-18.12,25.90,11,0,2,0,0
17666,0,0,1,0,0,0,0,173.80,19.09,62.51,6.97,0.67,8.57,101145,-18.79,25.90,16,0,0,0,0
17714,0,0,1,0,0,0,0,173.74,19.10,62.51,7.03,0.54,8.53,101140,-18.62,25.90,16,1,2,0,0
17762,0,0,1,0,0,0,0,173.64,19.14,62.50,7.00,0.58,8.41,101140,-18.12,25.90,16,0,2,0,0
17810,0,0,1,0,0,0,0,173.57,19.16,62.50,6.98,0.61,8.48,101142,-18.37,25.90,16,4,0,0,0
17874,0,0,1,0,0,0,0,173.51,19.15,62.51,6.94,0.67,8.47,101142,-18.04,25.90,16,2,0,0,0
17922,0,0,1,0,0,0,0,173.43,19.16,62.51,7.09,0.63,8.48,101142,-18.37,25.90,16,1,2,0,0
17970,0,0,1,0,0,0,0,173.38,19.14,62.52,6.94,0.71,8.39,101142,-18.88,25.90,11,2,2,0,0
18018,0,0,1,0,0,0,0,173.31,19.14,62.52,7.00,0.75,8.46,101148,-18.88,25.90,14,0,4,0,0
18066,0,0,1,0,0,0,0,173.25,19.15,62.52,6.94,0.67,8.39,101139,-18.88,25.90,11,2,0,0,0
18114,0,0,1,0,0,0,0,173.18,19.15,62.52,7.06,0.78,8.39,101146,-18.12,25.90,16,1,2,0,0
18162,0,0,1,0,0,0,0,173.13,19.15,62.52,6.88,0.71,8.43,101140,-19.38,25.90,16,2,3,0,0
18226,0,0,1,0,0,0,0,173.08,19.15,62.52,6.96,0.72,8.42,101143,-18.79,25.90,20,4,1,0,0
18274,0,0,1,0,0,0,0,173.03,19.14,62.52,6.82,0.72,8.46,101142,-18.62,25.90,18,2,0,0,0
18322,0,0,1,0,0,0,0,172.97,19.14,62.51,6.90,0.66,8.52,101142,-18.62,25.90,15,0,2,0,0
18370,0,0,1,0,0,0,0,172.91,19.14,62.51,6.91,0.57,8.40,101145,-18.54,25.90,20,0,2,0,0
18418,0,0,1,0,0,0,0,172.84,19.15,62.50,6.91,0.80,8.33,101142,-19.05,25.90,15,4,0,0,0
18466,0,0,1,0,0,0,0,172.76,19.17,62.49,7.03,0.72,8.37,101143,-19.21,25.90,15,1,4,0,0
18514,0,0,1,0,0,0,0,172.71,19.18,62.48,6.95,0.66,8.36,101146,-18.79,25.90,15,0,2,0,0
18562,0,0,1,0,0,0,0,172.67,19.17,62.47,6.95,0.74,8.31,101145,-18.54,25.90,17,0,0,0,0
18627,0,0,1,0,0,0,0,172.61,19.16,62.47,6.93,0.79,8.36,101142,-18.37,25.90,18,2,1,0,0
18674,0,0,1,0,0,0,0,172.54,19.19,62.44,6.97,0.69,8.35,101143,-18.79,25.90,15,4,0,0,0
18722,0,0,1,0,0,0,0,172.46,19.21,62.44,6.77,0.69,8.55,101139,-18.79,25.90,20,0,2,0,0
18770,0,0,1,0,0,0,0,172.40,19.22,62.42,6.92,0.65,8.45,101142,-18.29,25.90,12,4,0,0,0
18818,0,0,1,0,0,0,0,172.34,19.22,62.42,6.98,0.68,8.44,101145,-18.54,25.90,20,2,4,0,0
18866,0,0,1,0,0,0,0,172.30,19.20,62.41,6.91,0.79,8.47,101148,-18.54,25.90,15,2,5,0,0
18914,0,0,1,0,0,0,0,172.28,19.17,62.41,6.92,0.63,8.36,101142,-18.54,25.90,11,4,2,0,0
18962,0,0,1,0,0,0,0,172.25,19.13,62.40,7.01,0.86,8.20,101143,-18.04,25.90,12,2,3,0,0
19026,0,0,1,0,0,0,0,172.22,19.11,62.40,6.84,0.60,8.49,101145,-18.54,25.90,11,4,0,0,0
19074,0,0,1,0,0,0,0,172.18,19.09,62.40,6.99,0.55,8.43,101146,-19.05,25.90,12,2,2,0,0
19122,0,0,1,0,0,0,0,172.11,19.09,62.43,7.15,0.98,8.35,101132,-18.37,25.90,9,4,0,0,0
19170,0,0,1,0,0,0,0,172.07,19.07,62.45,7.02,0.73,8.36,101137,-18.54,25.90,14,1,2,0,0
19218,0,0,1,0,0,0,0,172.02,19.05,62.47,6.87,0.81,8.24,101139,-18.54,25.90,10,0,0,0,0
19266,0,0,1,0,0,0,0,171.99,19.01,62.51,6.92,0.87,8.26,101139,-18.12,25.90,9,0,2,0,0
19314,0,0,1,0,0,0,0,171.94,19.00,62.53,7.03,0.26,8.59,101136,-18.12,25.90,6,0,4,0,0
19362,0,0,1,0,0,0,0,171.89,18.97,62.56,7.20,0.35,8.54,101136,-18.29,25.90,0,0,3,0,0
19426,0,0,1,0,0,0,0,171.82,18.95,62.66,7.25,0.52,7.98,101149,-18.88,25.90,0,0,1,0,0
19474,0,0,1,0,0,0,0,171.70,18.95,62.78,7.20,-0.27,8.53,101145,-18.12,25.90,1,0,1,0,0
19522,0,0,1,0,0,0,0,171.57,18.94,62.90,7.63,-0.75,8.90,101140,-18.79,25.90,0,0,0,0,0
19570,0,0,1,0,0,0,0,171.51,18.81,63.10,7.33,0.49,8.29,101143,-18.88,25.90,0,0,0,0,0
19618,0,0,1,0,0,0,0,171.53,18.66,63.24,7.87,0.61,8.20,101148,-18.79,25.90,0,0,2,0,0
19667,0,0,1,0,0,0,0,171.73,18.41,63.40,7.98,-0.18,7.78,101143,-18.79,25.90,39,2,0,0,0
19714,0,0,1,0,0,0,0,171.90,18.11,63.73,7.26,0.40,8.70,101146,-18.79,25.90,201,0,4,0,0
19778,0,0,1,0,0,0,0,172.41,17.65,63.94,7.52,0.43,8.93,101132,-18.29,25.90,405,0,0,0,0
19826,0,0,1,0,0,0,0,172.89,17.19,64.23,6.91,-0.29,8.19,101154,-19.38,25.90,495,0,3,0,0
19874,0,0,1,0,0,0,0,172.87,17.03,64.64,6.35,-0.75,7.67,101139,-18.54,25.90,531,0,0,1,0
19922,0,0,1,0,0,0,0,172.27,17.23,65.16,3.92,-2.72,7.66,101143,-18.88,25.90,510,0,0,1,0
19970,0,0,1,0,0,0,0,170.86,17.95,65.68,5.31,-5.45,6.22,101143,-18.37,25.90,516,0,0,1,0
20018,0,0,1,0,0,0,0,169.05,18.54,66.51,4.51,5.93,14.74,101133,-17.79,25.90,525,0,0,1,0
20066,0,0,1,0,0,0,0,169.10,18.47,66.56,5.69,13.61,8.40,101143,-18.62,25.90,532,0,0,1,0
20114,0,0,1,0,0,0,0,169.24,18.55,66.20,5.17,2.25,8.83,101149,-18.79,25.90,522,0,0,1,0
20178,0,0,1,0,0,0,0,169.05,18.74,66.10,4.16,0.80,7.83,101149,-18.62,25.90,494,0,0,1,0
20226,0,0,1,0,0,0,0,168.74,19.19,65.61,6.11,0.45,6.93,101146,-18.54,25.90,489,0,0,1,0
20279,0,0,1,0,0,0,0,168.36,19.75,64.90,4.54,1.92,5.73,101140,-18.88,25.90,459,0,0,1,0
20321,0,0,1,0,0,0,0,167.83,20.44,64.18,7.85,1.23,9.29,101148,-18.88,25.90,461,0,0,1,0
20370,0,0,1,0,0,0,0,167.72,20.87,63.53,10.47,-4.42,10.16,101146,-18.88,25.90,476,0,0,1,0
20417,0,0,1,0,0,0,0,167.50,21.14,63.22,8.54,-1.40,9.74,101145,-18.54,25.90,491,0,0,1,0
20466,0,0,1,0,0,0,0,167.59,21.20,63.07,7.25,0.00,8.49,101140,-18.29,25.90,502,0,0,1,0
20513,0,0,1,0,0,0,0,167.54,21.26,63.00,6.54,-1.18,9.02,101140,-18.62,25.90,506,0,0,1,0
20578,0,0,1,0,0,0,0,167.46,21.32,62.90,8.12,-1.27,9.22,101143,-18.54,25.90,506,0,0,1,0
20625,0,0,1,0,0,0,0,167.40,21.26,62.94,8.08,-1.27,8.96,101149,-18.88,25.90,505,0,0,1,0
20673,0,0,1,0,0,0,0,167.40,21.13,63.01,8.23,-0.89,9.00,101145,-18.54,25.90,495,0,0,1,0
20721,0,0,1,0,0,0,0,167.39,20.94,63.16,7.94,-0.81,8.78,101142,-18.37,25.90,489,1,0,1,0
20770,0,0,1,0,0,0,0,167.35,20.72,63.38,7.34,-0.68,8.71,101142,-18.88,25.90,480,0,0,1,0
20817,0,0,1,0,0,0,0,167.27,20.53,63.60,7.37,0.01,8.88,101139,-18.12,25.90,473,0,0,1,0
20866,0,0,1,0,0,0,0,167.17,20.33,63.87,6.06,0.17,8.24,101155,-18.62,25.90,484,0,0,1,0
20930,0,0,1,0,0,0,0,166.95,20.21,64.09,5.68,1.64,7.19,101148,-19.12,25.90,472,0,0,1,0
20978,0,0,1,0,0,0,0,166.69,20.16,64.24,5.93,0.80,6.88,101154,-18.62,25.90,476,0,0,1,0
21027,0,0,1,0,0,0,0,166.49,20.10,64.36,6.92,0.25,7.52,101143,-18.37,25.90,507,0,0,1,0
21073,0,0,1,0,0,0,0,166.39,20.04,64.37,6.70,0.65,7.89,101139,-18.62,25.90,523,0,0,1,0
21121,0,0,1,0,0,0,0,166.21,20.05,64.38,5.97,1.22,7.41,101142,-18.29,25.90,530,0,0,1,0
21170,0,0,1,0,0,0,0,165.94,20.14,64.35,5.41,0.63,6.76,101139,-18.54,25.90,530,0,0,1,0
21218,0,0,1,0,0,0,0,165.77,20.21,64.27,7.01,-0.42,7.96,101146,-18.37,25.90,512,1,0,1,0
21265,0,0,1,0,0,0,0,165.69,20.23,64.19,7.61,-0.72,8.76,101140,-18.29,25.90,520,0,0,1,0
21329,0,0,1,0,0,0,0,165.59,20.23,64.21,7.44,0.34,7.59,101143,-18.79,25.90,518,0,0,1,0
21378,0,0,1,0,0,0,0,165.52,20.20,64.25,6.42,-0.09,7.95,101145,-18.88,25.90,536,0,0,1,0
21425,0,0,1,0,0,0,0,165.47,20.16,64.28,6.12,0.02,8.33,101148,-19.12,25.90,545,1,0,1,0
21473,0,0,1,0,0,0,0,165.39,20.19,64.25,7.19,0.15,7.58,101140,-18.62,25.90,542,0,0,1,0
21521,0,0,1,0,0,0,0,165.34,20.20,64.22,7.13,-0.84,8.24,101149,-18.79,25.90,535,0,0,1,0
21571,0,0,1,0,0,0,0,165.26,20.24,64.20,6.50,-1.28,9.14,101143,-18.88,25.90,526,0,0,1,0
21617,0,0,1,0,0,0,0,165.05,20.33,64.34,4.96,-1.52,9.24,101139,-18.79,25.90,498,0,0,1,0
21666,0,0,1,0,0,0,0,164.77,20.50,64.51,6.20,-4.09,9.66,101148,-18.88,25.90,485,0,0,1,0
21729,0,0,1,0,0,0,0,164.19,20.74,64.81,7.94,-4.23,9.19,101146,-18.62,25.90,468,0,0,1,0
21777,0,0,1,0,0,0,0,163.72,21.04,64.74,7.72,0.97,6.60,101145,-18.79,25.90,451,0,0,1,0
21825,0,0,1,0,0,0,0,163.50,21.37,64.53,8.54,6.11,5.48,101139,-18.37,25.90,462,0,0,1,0
21873,0,0,1,0,0,0,0,163.75,21.33,64.59,8.54,1.32,5.74,101156,-18.37,25.90,456,0,0,1,0
21921,0,0,1,0,0,0,0,163.18,21.79,64.32,8.73,-1.86,9.40,101145,-18.29,25.90,484,0,5,0,0
21969,0,0,1,0,0,0,0,162.54,22.20,64.14,6.58,0.88,10.89,101148,-19.29,25.90,493,0,6,1,0
22017,0,0,1,0,0,0,0,162.21,22.26,64.14,6.34,-6.95,9.72,101143,-18.12,25.90,492,0,1,1,0
22081,0,0,1,0,0,0,0,161.58,22.40,64.13,6.47,-8.27,8.02,101135,-17.54,25.90,458,0,0,1,0
22129,0,0,1,0,0,0,0,160.62,22.68,63.99,8.27,0.68,7.57,101137,-18.12,25.90,418,0,4,1,0
22177,0,0,1,0,0,0,0,159.95,22.92,63.33,11.03,9.44,8.45,101137,-18.54,25.90,443,0,12,1,0
22225,0,0,1,0,0,0,0,159.46,23.14,62.83,9.26,3.32,5.57,101142,-19.12,25.90,468,0,6,1,0
22273,0,0,1,0,0,0,0,159.43,23.31,62.11,7.07,-4.23,10.56,101137,-18.04,25.90,493,0,6,1,0
22323,0,0,1,0,0,0,0,159.05,23.38,62.16,6.43,-3.39,10.78,101139,-18.37,25.90,497,0,9,1,0
22369,0,0,1,0,0,0,0,158.45,23.37,62.14,7.16,1.70,6.97,101135,-18.29,25.90,508,0,13,1,0
22417,0,0,1,0,0,0,0,158.30,23.21,62.09,5.07,0.01,4.09,101135,-17.96,25.90,506,0,4,1,0
22481,0,0,1,0,0,0,0,157.98,23.29,61.96,7.19,-0.16,6.26,101136,-18.37,25.90,515,0,5,1,0
22529,0,0,1,0,0,0,0,157.79,23.40,61.93,8.96,-0.98,8.36,101146,-18.62,25.90,520,0,3,1,0
22577,0,0,1,0,0,0,0,157.69,23.40,61.96,7.73,-2.16,9.18,101142,-19.12,25.90,502,1,7,1,0
22625,0,0,1,0,0,0,0,157.64,23.28,62.04,6.00,-3.17,9.12,101143,-18.54,25.90,506,0,6,1,0
22673,0,0,1,0,0,0,0,157.54,23.21,62.15,5.81,-1.57,8.55,101149,-18.04,25.90,531,0,6,1,0
22721,0,0,1,0,0,0,0,157.31,23.34,61.98,6.13,2.62,5.01,101145,-18.54,25.90,528,0,58,1,0
22769,0,0,1,0,0,0,0,157.22,23.46,61.87,7.01,2.66,5.84,101140,-18.37,25.90,518,0,57,1,0
22817,0,0,1,0,0,0,0,156.99,23.72,61.63,8.96,-1.01,8.51,101149,-18.79,25.90,525,0,68,1,0
22881,0,0,1,0,0,0,0,156.95,23.81,61.48,8.62,-0.66,8.09,101148,-18.79,25.90,503,0,58,1,0
22929,0,0,1,0,0,0,0,157.05,23.79,61.32,6.72,-1.98,8.14,101142,-18.79,25.90,513,2,38,1,0
22977,0,0,1,0,0,0,0,156.95,23.96,61.08,6.07,-2.72,8.69,101149,-18.79,25.90,539,0,39,1,0
23025,0,0,1,0,0,0,0,156.46,24.47,60.67,5.86,-1.18,7.64,101151,-18.62,25.90,544,0,41,1,0
23075,0,0,1,0,0,0,0,155.58,25.29,60.11,6.92,-2.54,7.73,101143,-18.29,25.90,541,0,43,1,0
23121,0,0,1,0,0,0,0,154.53,26.27,59.62,7.93,-2.79,8.02,101139,-18.04,25.90,543,0,47,1,0
23169,0,0,1,0,0,0,0,153.23,27.44,59.22,7.56,-4.70,9.42,101139,-18.21,25.90,543,3,48,1,0
23217,0,0,1,0,0,0,0,152.22,28.32,59.34,6.08,-1.38,8.53,101143,-18.04,25.90,541,0,43,1,0
23281,0,0,1,0,0,0,0,151.66,28.77,59.77,6.14,1.25,8.43,101143,-18.88,25.90,543,1,43,1,0
23329,0,0,1,0,0,0,0,151.42,28.90,60.26,6.56,0.77,9.22,101146,-18.62,25.90,545,2,29,1,0
23377,0,0,1,0,0,0,0,151.25,29.05,60.36,7.90,-0.09,9.11,101146,-19.29,25.90,541,0,31,1,0
23425,0,0,1,0,0,0,0,151.12,29.26,60.06,8.54,-0.08,8.32,101138,-18.62,25.90,550,0,34,1,0
23473,0,0,1,0,0,0,0,151.00,29.51,59.54,7.66,-1.21,7.44,101140,-18.29,25.90,552,0,36,1,0
23521,0,0,1,0,0,0,0,151.10,29.62,58.96,6.21,-0.59,6.55,101139,-17.79,25.90,549,0,29,1,0
23569,0,0,1,0,0,0,0,151.55,29.56,58.17,5.97,1.54,5.15,101140,-18.21,25.90,552,0,33,1,0
23635,0,0,1,0,0,0,0,152.15,29.53,57.21,6.97,1.52,4.92,101136,-18.29,25.90,531,2,64,1,0
23681,0,0,1,0,0,0,0,153.05,29.31,56.39,11.02,1.64,5.39,101136,-18.04,25.90,499,0,46,1,0
23729,0,0,1,0,0,0,0,154.20,28.82,55.78,8.91,3.37,5.52,101143,-18.54,25.90,495,0,44,1,0
23777,0,0,1,0,0,0,0,155.07,28.42,55.28,7.24,-3.20,9.93,101140,-18.37,25.90,508,0,38,1,0
23825,0,0,1,0,0,0,0,155.34,28.15,55.13,3.98,-10.74,10.10,101138,-18.62,25.90,520,0,59,1,0
23873,0,0,1,0,0,0,0,155.30,28.12,55.08,5.19,-4.19,5.87,101140,-18.79,25.90,524,1,49,1,0
23921,0,0,1,0,0,0,0,154.92,28.43,54.82,7.00,1.44,6.40,101142,-18.37,25.90,525,0,37,1,0
23969,0,0,1,0,0,0,0,154.59,28.65,54.35,6.14,2.59,6.93,101140,-18.04,25.90,489,0,42,1,0
24035,0,0,1,0,0,0,0,154.29,28.77,53.85,5.03,3.08,6.19,101140,-17.96,25.90,431,0,39,1,0
24081,0,0,1,0,0,0,0,153.88,28.95,53.39,3.68,2.37,6.15,101143,-18.54,25.90,373,0,63,1,0
24129,0,0,1,0,0,0,0,153.39,29.30,52.93,5.85,-2.44,7.28,101139,-18.29,25.90,312,0,58,1,0
24177,0,0,1,0,0,0,0,152.75,29.76,52.45,5.82,-0.45,6.38,101140,-18.04,25.90,240,0,60,1,0
24225,0,0,1,0,0,0,0,152.03,30.13,52.18,5.29,3.42,6.17,101133,-18.04,25.90,285,0,83,1,0
24273,0,0,1,0,0,0,0,151.72,30.33,51.96,16.50,-6.33,13.18,101133,-17.79,25.90,295,0,66,1,0
24321,0,0,1,0,0,0,0,152.27,29.63,52.63,0.42,1.46,2.38,101138,-17.45,25.90,328,0,42,1,0
24369,0,0,1,0,0,0,0,152.49,29.42,52.80,3.45,-0.32,8.09,101135,-17.71,25.90,341,0,51,1,0
24433,0,0,1,0,0,0,0,152.39,29.48,52.94,8.15,-0.24,8.34,101135,-17.79,25.90,361,0,31,1,0
24481,0,0,1,0,0,0,0,152.50,29.36,53.08,8.57,3.89,6.90,101139,-18.54,25.90,360,0,38,1,0
24529,0,0,1,0,0,0,0,152.87,29.02,53.16,3.91,-0.19,5.87,101145,-18.54,25.90,374,1,40,1,0
24577,0,0,1,0,0,0,0,153.06,28.93,53.25,5.88,-0.04,5.11,101148,-19.05,25.90,380,0,45,1,0
24625,0,0,1,0,0,0,0,153.17,28.89,53.59,7.10,-0.06,7.26,101143,-18.29,25.90,381,0,50,1,0
24673,0,0,1,0,0,0,0,153.26,28.84,53.76,7.66,2.88,6.66,101139,-18.29,25.90,393,0,43,1,0
24721,0,0,1,0,0,0,0,153.39,28.80,53.77,7.84,1.28,6.69,101146,-18.79,25.90,398,0,58,1,0
24786,0,0,1,0,0,0,0,153.45,28.80,53.70,6.96,0.77,7.00,101138,-17.71,25.90,407,1,67,1,0
24834,0,0,1,0,0,0,0,153.51,28.83,53.58,5.88,0.64,6.56,101142,-18.29,25.90,409,2,52,0,0
24881,0,0,1,0,0,0,0,153.55,28.91,53.46,5.10,-0.62,7.01,101141,-18.29,25.90,408,2,54,0,0
24929,0,0,1,0,0,0,0,153.55,29.04,53.41,6.42,-0.13,6.57,101145,-18.79,26.00,401,0,40,1,0
24977,0,0,1,0,0,0,0,153.56,29.16,53.43,6.85,0.32,6.99,101142,-19.12,26.00,408,2,41,0,0
25025,0,0,1,0,0,0,0,153.52,29.32,53.38,7.69,0.40,7.30,101146,-19.05,25.90,424,0,35,1,0
25073,0,0,1,0,0,0,0,153.51,29.42,53.39,7.27,0.76,7.72,101149,-18.79,26.00,422,0,38,1,0
25122,0,0,1,0,0,0,0,153.63,29.41,53.41,7.30,1.47,8.70,101142,-18.79,26.00,416,0,50,1,0
25185,0,0,1,0,0,0,0,153.80,29.35,53.33,7.53,0.22,7.64,101146,-19.05,26.00,408,0,51,1,0
25234,0,0,1,0,0,0,0,153.88,29.33,53.24,7.45,-0.15,8.11,101145,-18.62,26.00,410,0,61,1,0
25281,0,0,1,0,0,0,0,153.94,29.31,53.20,7.60,-0.16,8.13,101146,-19.05,26.00,402,0,41,1,0
25329,0,0,1,0,0,0,0,153.93,29.30,53.20,7.66,-0.39,8.16,101145,-18.79,26.00,408,1,55,0,0
25377,0,0,1,0,0,0,0,153.91,29.23,53.29,7.47,0.31,7.69,101143,-18.88,26.00,410,5,41,0,0
25425,0,0,1,0,0,0,0,153.92,29.08,53.42,8.15,1.61,7.64,101148,-18.62,26.00,413,0,44,1,0
25473,0,0,1,0,0,0,0,154.05,28.80,53.52,7.68,1.28,7.26,101141,-18.46,26.00,415,1,45,1,0
25521,0,0,1,0,0,0,0,154.10,28.59,53.47,6.39,-1.33,7.72,101151,-19.12,26.00,418,2,37,1,0
25585,0,0,1,0,0,0,0,153.97,28.54,53.44,6.27,-1.40,7.30,101143,-19.29,26.00,424,2,36,1,0
25633,0,0,1,0,0,0,0,153.83,28.51,53.53,7.07,-0.54,7.74,101145,-18.29,26.00,431,1,39,1,0
25681,0,0,1,0,0,0,0,153.62,28.50,53.64,7.40,-0.16,7.95,101142,-18.46,26.00,430,2,42,1,0
25729,0,0,1,0,0,0,0,153.37,28.51,53.79,7.50,0.30,7.33,101142,-18.54,26.00,440,2,40,1,0
25777,0,0,1,0,0,0,0,153.12,28.52,53.96,7.19,-0.07,7.62,101146,-18.62,26.00,434,2,36,1,0
25825,0,0,1,0,0,0,0,152.90,28.49,54.09,7.49,0.05,7.35,101138,-18.79,26.00,442,2,46,1,0
25873,0,0,1,0,0,0,0,152.71,28.44,54.18,6.94,-0.35,7.22,101142,-18.46,26.00,442,1,35,1,0
25921,0,0,1,0,0,0,0,152.52,28.41,54.29,7.36,-0.17,7.02,101146,-18.54,26.00,447,1,38,1,0
25985,0,0,1,0,0,0,0,152.40,28.34,54.40,7.16,0.13,6.96,101135,-18.21,26.00,454,2,48,1,0
26033,0,0,1,0,0,0,0,152.28,28.27,54.50,7.22,0.39,7.08,101141,-18.62,26.00,462,2,53,1,0
26081,0,0,1,0,0,0,0,152.15,28.22,54.60,7.27,0.04,7.29,101143,-18.46,26.00,464,3,59,1,0
26129,0,0,1,0,0,0,0,152.01,28.19,54.70,7.16,-0.58,7.20,101146,-18.29,26.00,466,2,59,1,0
26177,0,0,1,0,0,0,0,151.89,28.17,54.79,7.62,-0.21,7.13,101143,-18.62,26.00,458,3,64,1,0
26225,0,0,1,0,0,0,0,151.78,28.15,54.87,7.77,-0.33,7.20,101151,-18.88,26.00,468,6,68,1,0
26273,0,0,1,0,0,0,0,151.73,28.10,54.94,7.77,-0.73,7.47,101145,-19.05,26.00,461,2,54,1,0
26337,0,0,1,0,0,0,0,151.68,28.05,55.05,7.74,-0.41,7.26,101146,-18.62,26.00,461,5,43,1,0
26386,0,0,1,0,0,0,0,151.59,28.05,55.17,7.43,-0.52,7.40,101154,-19.12,26.00,461,2,38,1,0
26433,0,0,1,0,0,0,0,151.49,28.06,55.27,7.42,-0.73,7.47,101146,-18.88,26.00,454,2,38,1,0
26481,0,0,1,0,0,0,0,151.44,28.08,55.43,6.62,-1.78,7.70,101146,-18.79,26.00,454,1,27,1,0
26529,0,0,1,0,0,0,0,151.39,28.14,55.60,6.38,-2.88,8.11,101146,-18.79,26.00,449,2,21,1,0
26577,0,0,1,0,0,0,0,151.14,28.40,55.63,7.29,-2.16,7.37,101143,-19.05,26.00,452,0,16,1,0
26625,0,0,1,0,0,0,0,150.68,28.80,55.67,7.56,-3.52,9.19,101138,-18.46,26.00,440,0,39,1,0
26673,0,0,1,0,0,0,0,149.94,29.34,55.69,7.67,-4.62,7.08,101149,-19.29,26.00,425,0,50,1,0
26737,0,0,1,0,0,0,0,149.25,29.76,56.19,6.43,-2.74,7.55,101141,-18.62,26.00,394,0,49,1,0
26785,0,0,1,0,0,0,0,148.73,30.24,57.43,8.48,-2.46,6.91,101145,-18.54,26.00,359,0,45,1,0
26833,0,0,1,0,0,0,0,149.15,30.26,59.39,10.49,3.23,17.56,101142,-18.21,26.00,330,0,27,1,0
26881,0,0,1,0,0,0,0,149.71,30.37,59.62,15.13,6.04,14.75,101136,-18.79,26.00,331,0,29,1,0
26929,0,0,1,0,0,0,0,151.23,29.44,60.32,10.88,-1.92,4.04,101142,-18.46,26.00,321,0,40,1,0
26977,0,0,1,0,0,0,0,152.41,28.73,60.75,2.35,-11.60,9.61,101146,-18.46,26.00,215,0,63,1,0
27025,0,0,1,0,0,0,0,152.98,28.20,61.26,7.66,-9.54,8.10,101133,-17.79,26.00,171,0,70,1,0
27073,0,0,1,0,0,0,0,154.35,26.99,62.29,12.31,-1.31,11.65,101132,-17.96,26.00,128,0,64,1,0
27137,0,0,1,0,0,0,0,156.02,25.01,64.41,4.24,-8.38,7.32,101141,-18.46,26.00,91,0,82,1,0
27185,0,0,1,0,0,0,0,157.81,22.57,67.28,10.01,-4.26,5.54,101141,-18.21,26.00,73,0,14,1,0
27233,0,0,1,0,0,0,0,158.72,21.29,68.71,8.80,2.31,4.22,101132,-17.71,26.00,46,0,26,1,0
27281,0,0,1,0,0,0,0,160.88,18.80,71.05,2.62,0.88,4.04,101142,-18.88,26.00,31,0,38,1,0
27329,0,0,1,0,0,0,0,162.08,17.22,71.95,-2.83,-2.80,3.52,101130,-17.96,26.00,25,0,25,1,0
27377,0,0,1,0,0,0,0,162.25,16.93,71.76,1.24,-6.40,2.14,101136,-17.71,26.00,17,0,32,1,0
27425,0,0,1,0,0,0,0,161.98,17.15,71.31,5.33,0.61,6.24,101138,-17.96,26.00,3,0,9,1,0
27473,0,0,1,0,0,0,0,162.14,16.82,70.71,10.22,-0.22,5.73,101145,-18.79,26.00,0,0,25,1,0
27537,0,0,1,0,0,0,0,162.38,16.53,70.48,12.34,-5.89,9.39,101141,-17.79,26.00,0,0,38,1,0
27585,0,0,1,0,0,0,0,162.15,16.82,70.20,11.52,-8.81,11.99,101139,-19.29,26.00,1,0,27,1,0
27633,0,0,1,0,0,0,0,161.09,18.07,69.52,8.87,-10.74,10.43,101143,-18.79,26.00,0,0,17,1,0
27681,0,0,1,0,0,0,0,159.25,20.12,68.68,4.34,-12.55,6.12,101141,-18.21,26.00,4,0,18,1,0
27729,0,0,1,0,0,0,0,158.10,21.79,68.19,6.45,-4.53,3.22,101143,-18.62,26.00,10,0,10,1,0
27777,0,0,1,0,0,0,0,158.64,22.02,67.70,7.44,18.45,8.76,101146,-18.62,26.00,7,0,37,1,0
27825,0,0,1,0,0,0,0,156.35,24.23,65.57,5.09,20.50,4.56,101143,-19.12,26.00,1,0,29,1,0
27889,0,0,1,0,0,0,0,153.95,26.12,63.88,5.30,3.94,3.77,101138,-18.29,26.00,0,0,34,1,0
27937,0,0,1,0,0,0,0,152.20,27.11,62.58,2.51,-3.83,3.62,101149,-18.79,26.00,0,0,26,1,0
27985,0,0,1,0,0,0,0,151.82,26.68,61.32,4.41,-9.67,0.32,101145,-18.54,26.00,0,0,33,1,0
28033,0,0,1,0,0,0,0,151.53,27.05,58.73,8.00,-16.49,3.38,101139,-17.96,26.00,1,0,11,1,0
28081,0,0,1,0,0,0,0,151.15,27.60,58.90,4.48,-14.42,6.43,101139,-17.96,26.00,0,0,11,1,0
28129,0,0,1,0,0,0,0,150.48,28.31,59.78,2.37,-13.15,6.26,101135,-18.04,26.00,1,0,14,1,0
28177,0,0,1,0,0,0,0,151.23,27.55,61.54,-0.33,-3.72,5.53,101133,-18.21,26.00,1,0,13,1,0
28225,0,0,1,0,0,0,0,152.13,26.34,62.74,13.78,5.17,13.00,101135,-17.96,26.00,0,0,16,1,0
28289,0,0,1,0,0,0,0,154.27,24.43,64.77,5.46,15.24,1.45,101141,-18.21,26.00,0,0,18,1,0
28337,0,0,1,0,0,0,0,154.19,24.48,64.64,7.52,6.49,2.92,101136,-18.29,26.00,0,0,22,1,0
28385,0,0,1,0,0,0,0,153.94,24.67,64.29,3.12,-1.01,5.49,101136,-17.96,26.00,1,0,16,1,0
28432,0,0,1,0,0,0,0,153.66,24.94,63.95,1.59,-2.90,6.94,101141,-18.21,26.00,1,0,15,1,0
28481,0,0,1,0,0,0,0,153.26,25.46,63.51,3.98,-1.18,5.10,101139,-17.96,26.00,1,0,18,1,0
28528,0,0,1,0,0,0,0,152.86,25.93,63.03,5.58,0.63,5.25,101136,-18.04,26.00,0,0,16,1,0
28577,0,0,1,0,0,0,0,152.48,26.30,62.50,8.28,-0.66,8.07,101138,-17.96,26.00,0,0,18,1,0
28624,0,0,1,0,0,0,0,152.09,26.57,61.92,10.39,-2.47,10.80,101146,-18.21,26.00,0,0,15,1,0
28689,0,0,1,0,0,0,0,152.08,26.45,61.81,8.75,-3.81,9.30,101144,-18.88,26.00,0,0,19,1,0
28736,0,0,1,0,0,0,0,152.44,25.98,62.27,4.13,-3.64,10.27,101145,-18.79,26.00,2,0,26,1,0
28784,0,0,1,0,0,0,0,152.54,25.79,62.42,5.49,-2.06,8.54,101145,-18.54,26.00,1,0,26,1,0
28833,0,0,1,0,0,0,0,152.58,25.69,62.56,5.52,-1.07,8.40,101141,-18.62,26.00,1,0,28,1,0
28881,0,0,1,0,0,0,0,152.51,25.72,62.65,5.41,-0.65,8.08,101136,-18.29,26.00,3,0,29,1,0
28928,0,0,1,0,0,0,0,152.26,25.91,62.53,5.72,-1.29,8.60,101138,-18.29,26.00,0,0,22,1,0
28976,0,0,1,0,0,0,0,151.93,26.23,62.36,5.89,-5.21,10.69,101151,-18.21,26.00,1,0,21,1,0
29025,0,0,1,0,0,0,0,152.09,26.28,62.68,4.73,-2.69,8.47,101139,-18.29,26.00,1,0,21,1,0
29089,0,0,1,0,0,0,0,152.19,26.33,62.92,5.50,-3.60,7.00,101142,-18.29,26.00,0,0,23,1,0
29137,0,0,1,0,0,0,0,152.40,26.28,63.20,7.14,-1.74,5.79,101141,-18.29,26.00,0,0,23,1,0
29184,0,0,1,0,0,0,0,152.73,26.03,63.56,6.88,-0.27,7.55,101141,-18.54,26.00,0,0,29,1,0
29232,0,0,1,0,0,0,0,152.98,25.85,63.81,6.47,-4.64,7.63,101145,-18.54,26.00,0,0,29,1,0
29280,0,0,1,0,0,0,0,153.45,25.53,64.24,6.70,-1.31,6.40,101145,-18.54,26.00,1,0,34,1,0
29329,0,0,1,0,0,0,0,153.84,25.25,64.59,5.53,-1.83,4.92,101138,-18.04,26.00,0,0,27,1,0
29377,0,0,1,0,0,0,0,154.28,24.96,64.94,3.55,-2.18,4.71,101136,-17.79,26.00,0,0,25,1,0
29441,0,0,1,0,0,0,0,154.51,24.85,65.08,4.89,-2.22,6.04,101139,-18.29,26.00,0,0,24,1,0
29489,0,0,1,0,0,0,0,154.54,24.87,65.07,6.34,-2.19,6.47,101139,-17.96,26.00,0,0,24,1,0
29537,0,0,1,0,0,0,0,154.56,24.90,65.05,5.65,-2.15,6.42,101141,-17.96,26.00,0,0,28,1,0
29585,0,0,1,0,0,0,0,154.53,25.01,64.96,5.11,-1.72,5.81,101139,-18.21,26.00,0,0,27,1,0
29633,0,0,1,0,0,0,0,154.47,25.17,64.81,4.41,-1.53,5.32,101144,-18.46,26.00,0,0,30,1,0
29680,0,0,1,0,0,0,0,154.20,25.48,64.51,4.26,-2.22,4.31,101144,-18.71,26.00,0,0,26,1,0
29728,0,0,1,0,0,0,0,154.03,25.66,64.32,4.09,-2.63,4.26,101133,-17.96,26.00,0,0,26,1,0
29777,0,0,1,0,0,0,0,153.99,25.70,64.29,4.09,-2.90,3.73,101139,-18.04,26.00,1,0,24,1,0
29840,0,0,1,0,0,0,0,154.05,25.64,64.35,3.83,-2.84,4.23,101139,-18.29,26.00,1,0,21,1,0
29888,0,0,1,0,0,0,0,154.06,25.60,64.38,3.77,-2.63,5.00,101141,-18.21,26.00,0,0,22,1,0
29937,0,0,1,0,0,0,0,154.02,25.57,64.39,3.68,-2.23,5.42,101138,-18.54,26.00,0,0,16,1,0
29984,0,0,1,0,0,0,0,153.86,25.63,64.31,4.03,-1.68,6.27,101139,-17.96,26.00,1,0,17,1,0
30033,0,0,1,0,0,0,0,153.58,25.77,64.12,5.25,-2.29,6.73,101133,-18.29,26.00,0,0,20,1,0
30080,0,0,1,0,0,0,0,153.31,25.90,63.92,6.13,-2.48,7.24,101136,-18.21,26.00,0,0,16,1,0
30128,0,0,1,0,0,0,0,153.12,25.99,63.75,6.24,-2.28,8.24,101135,-18.04,26.00,1,0,17,1,0
30177,0,0,1,0,0,0,0,152.88,26.12,63.52,7.39,-2.40,9.49,101141,-18.04,26.00,0,0,19,1,0
30241,0,0,1,0,0,0,0,152.78,26.15,63.41,7.48,-3.22,10.71,101139,-18.04,26.00,0,0,18,1,0
30288,0,0,1,0,0,0,0,152.86,26.01,63.51,6.46,-2.29,9.74,101141,-18.29,26.00,0,0,18,1,0
30337,0,0,1,0,0,0,0,152.89,25.92,63.58,4.66,-1.00,7.67,101138,-17.54,26.00,0,0,17,1,0
30384,0,0,1,0,0,0,0,152.81,25.93,63.55,4.27,-1.98,7.97,101132,-18.04,26.00,0,0,16,1,0
30432,0,0,1,0,0,0,0,152.77,25.91,63.57,5.06,-2.06,9.02,101139,-17.71,26.00,0,0,18,1,0
30481,0,0,1,0,0,0,0,152.73,25.92,63.59,5.90,-2.66,8.85,101139,-18.29,26.00,1,0,19,1,0
30529,0,0,1,0,0,0,0,152.76,25.85,63.70,6.10,-2.21,8.65,101142,-18.46,26.00,0,0,18,1,0
30576,0,0,1,0,0,0,0,152.83,25.77,63.84,6.05,-2.10,7.97,101141,-18.21,26.00,0,0,20,1,0
30640,0,0,1,0,0,0,0,153.02,25.62,64.06,5.30,-2.44,7.05,101136,-18.21,26.00,0,0,18,1,0
30688,0,0,1,0,0,0,0,153.23,25.48,64.27,5.54,-2.01,6.84,101135,-18.29,26.00,1,0,17,1,0
30738,0,0,1,0,0,0,0,153.33,25.43,64.38,5.32,-2.08,6.54,101141,-18.54,26.00,1,0,17,1,0
30785,0,0,1,0,0,0,0,153.28,25.53,64.32,4.89,-2.61,5.67,101136,-17.71,26.00,0,0,13,1,0
30832,0,0,1,0,0,0,0,153.11,25.73,64.14,4.07,-1.44,4.94,101138,-18.46,26.00,0,0,13,1,0
30880,0,0,1,0,0,0,0,152.81,25.98,63.89,4.27,-2.07,5.70,101139,-18.04,26.00,1,0,15,1,0
30928,0,0,1,0,0,0,0,152.61,26.17,63.71,4.35,-3.59,5.80,101139,-18.21,26.00,1,0,13,1,0
30992,0,0,1,0,0,0,0,152.67,26.26,63.66,4.68,-3.44,5.38,101139,-18.04,26.00,1,0,16,1,0
31040,0,0,1,0,0,0,0,152.80,26.36,63.59,2.83,0.77,3.08,101138,-18.04,26.00,1,0,15,1,0
31088,0,0,1,0,0,0,0,152.77,26.49,63.47,2.25,-1.95,1.94,101142,-18.21,26.00,0,0,17,1,0
31136,0,0,1,0,0,0,0,152.60,26.79,63.19,4.22,-3.76,4.40,101146,-18.46,26.00,1,0,17,1,0
31184,0,0,1,0,0,0,0,152.63,26.81,63.17,5.39,-3.38,5.21,101141,-17.79,26.00,0,0,17,1,0
31232,0,0,1,0,0,0,0,152.90,26.73,63.26,6.37,-1.73,5.43,101133,-18.21,26.00,0,0,20,1,0
31280,0,0,1,0,0,0,0,152.95,26.64,63.35,5.51,-1.82,4.73,101147,-18.96,26.00,0,0,19,1,0
31328,0,0,1,0,0,0,0,152.59,26.64,63.32,5.72,0.21,2.99,101139,-18.29,26.00,0,0,17,1,0
31392,0,0,1,0,0,0,0,151.95,26.72,63.16,4.01,-1.94,6.03,101139,-18.46,26.00,0,0,11,1,0
31441,0,0,1,0,0,0,0,151.40,26.76,62.98,4.74,-4.88,7.26,101132,-17.79,26.00,0,0,6,1,0
31488,0,0,1,0,0,0,0,150.92,26.72,62.83,8.39,-3.62,10.53,101138,-17.71,26.00,0,0,3,1,0
31536,0,0,1,0,0,0,0,150.46,26.75,62.63,6.76,-2.91,10.71,101135,-17.45,26.00,0,0,12,1,0
31584,0,0,1,0,0,0,0,150.36,26.83,62.55,4.18,-5.04,11.44,101133,-17.54,26.00,0,0,6,1,0
31632,0,0,1,0,0,0,0,150.70,26.93,62.64,5.21,-1.32,7.79,101133,-17.79,26.00,0,0,4,1,0
31680,0,0,1,0,0,0,0,151.30,26.93,62.84,5.17,-1.72,5.22,101138,-17.96,26.00,0,0,7,1,0
31728,0,0,1,0,0,0,0,151.58,27.20,62.68,13.24,5.66,8.32,101135,-18.46,26.00,0,0,5,1,0
31792,0,0,1,0,0,0,0,152.47,26.11,63.71,1.81,6.11,2.63,101138,-17.79,26.00,0,4,7,0,0
31840,0,0,1,0,0,0,0,151.03,26.97,62.66,-3.51,-17.12,2.97,101136,-17.79,26.00,0,2,8,0,0
31889,0,0,1,0,0,0,0,149.38,28.91,60.85,-0.66,-7.90,8.77,101135,-17.96,26.00,0,0,5,0,0
31936,0,0,1,0,0,0,0,147.15,30.59,59.03,6.81,13.97,3.88,101133,-18.04,26.00,1,0,0,0,0
31984,0,0,1,0,0,0,0,143.00,33.84,55.42,4.69,5.56,5.29,101135,-18.29,26.00,0,2,1,0,0
32032,0,0,1,0,0,0,0,139.18,37.06,51.93,-0.16,-4.48,8.63,101136,-17.71,26.00,0,0,6,0,0
32080,0,0,1,0,0,0,0,135.80,39.93,48.92,7.48,-5.39,10.42,101130,-17.96,26.00,0,0,5,0,0
32144,0,0,1,0,0,0,0,131.41,43.20,45.35,8.03,8.50,4.37,101136,-18.21,26.00,1,0,0,0,0
32192,0,0,1,0,0,0,0,124.02,46.84,39.97,7.26,22.24,-1.73,101135,-18.04,26.00,4,0,0,0,0
32240,0,0,1,0,0,0,0,114.84,50.00,32.72,12.10,30.20,-10.38,101133,-17.54,26.00,3,0,0,0,0
32288,0,0,1,0,0,0,0,109.77,52.95,27.85,21.63,18.48,17.58,101133,-17.71,26.00,0,4,1,0,0
32336,0,0,1,0,0,0,0,107.70,55.19,25.59,17.33,16.65,10.78,101141,-18.71,26.00,5,2,96,0,0
32384,0,0,1,0,0,0,0,106.14,57.10,23.34,4.48,3.56,2.66,101132,-17.79,26.00,3,0,72,0,0
32432,0,0,1,0,0,0,0,105.10,57.65,22.20,12.19,-7.15,19.76,101136,-17.96,26.00,7,0,50,0,0
32480,0,0,1,0,0,0,0,104.07,58.90,20.77,19.41,-4.99,6.69,101141,-17.96,26.00,1,0,61,0,0
32544,0,0,1,0,0,0,0,103.00,59.46,19.99,17.41,0.00,7.44,101136,-18.21,26.00,0,2,102,0,0
32592,0,0,1,0,0,0,0,102.12,60.50,19.62,14.22,-2.18,12.34,101136,-18.04,26.00,1,0,52,0,0
32640,0,0,1,0,0,0,0,101.80,61.25,19.81,7.82,-0.97,10.61,101132,-18.21,26.00,1,0,44,0,0
32689,0,0,1,0,0,0,0,101.72,61.12,20.55,-6.24,-2.63,13.93,101139,-18.04,26.00,0,0,4,0,0
32736,0,0,1,0,0,0,0,104.25,59.68,23.51,-9.46,-10.74,17.34,101130,-17.45,26.00,0,1,71,0,0
32785,0,0,1,0,0,0,0,110.81,57.44,28.40,-16.36,-14.11,14.03,101135,-17.79,26.00,2,1,42,0,0
32832,0,0,1,0,0,0,0,117.24,55.09,32.43,-16.38,-20.76,4.19,101130,-17.79,26.00,0,0,2,0,0
32883,0,0,0,0,0,0,0,120.55,53.05,34.88,-15.85,-25.16,-11.67,101135,-17.37,26.00,0,0,1,0,0
32944,0,0,0,0,0,0,0,121.24,50.17,37.38,-12.73,-18.42,-16.33,101126,-17.96,26.00,0,0,0,0,0
32992,0,0,0,0,0,0,0,118.67,48.49,38.83,1.60,-6.24,-20.54,101130,-18.04,26.00,4,0,41,0,0
33040,0,0,0,0,0,0,0,114.22,47.01,40.28,17.08,-0.01,-17.79,101136,-17.79,26.00,1,1,36,0,0
33088,0,0,0,0,0,0,0,110.19,44.42,42.72,8.59,-0.68,-10.95,101145,-18.21,26.00,1,0,31,0,0
33145,0,0,0,0,0,0,0,107.14,44.72,42.29,-7.18,16.49,19.79,101133,-18.29,26.00,3,0,63,0,0
33190,0,1,0,0,0,0,0,109.20,48.83,37.09,9.53,-9.37,16.85,101132,-17.79,26.00,4,0,28,0,0
33232,0,1,0,0,0,0,0,106.35,50.01,35.43,11.89,-10.98,-0.52,101135,-18.21,26.00,0,0,50,0,0
33296,0,1,0,0,0,0,0,104.93,50.61,34.36,5.47,-5.15,-7.40,101132,-17.96,26.00,1,0,52,0,0
33344,0,1,0,0,0,0,0,103.50,50.33,34.06,-1.42,-4.15,-6.73,101138,-17.79,26.00,0,2,29,0,0
33395,0,0,0,0,0,0,0,101.90,49.22,34.46,2.63,0.51,-0.74,101133,-18.04,26.00,0,0,67,0,0
33440,0,0,0,0,0,0,0,102.02,47.98,35.48,10.97,10.15,6.18,101139,-18.21,26.00,2,0,59,0,0
33489,0,0,0,0,0,0,0,104.10,47.80,35.21,12.20,5.46,0.64,101132,-17.71,26.00,4,0,56,0,0
33536,0,0,0,0,0,0,0,106.17,48.02,34.24,11.43,-6.50,5.28,101139,-17.12,26.00,2,0,136,0,0
33584,0,0,0,0,0,0,0,108.79,48.29,34.10,9.15,-17.34,0.81,101135,-18.29,26.00,3,2,71,0,0
33634,1,0,0,0,0,0,0,110.85,48.32,34.74,5.24,-14.14,2.36,101132,-17.54,26.00,3,0,31,0,0
33696,1,0,0,0,0,0,0,111.65,48.28,34.63,15.75,-14.21,17.14,101133,-18.29,26.00,8,0,20,0,0
33744,1,0,0,0,0,0,0,112.88,48.87,34.42,15.47,-1.54,8.42,101135,-18.21,26.00,8,0,20,0,0
33792,1,0,0,0,0,0,0,113.00,49.83,33.27,9.49,-3.42,9.07,101132,-17.45,26.00,7,0,40,0,0
33840,1,0,0,0,0,0,0,113.06,50.82,31.81,4.46,-6.99,5.59,101130,-17.37,26.00,4,0,60,0,0
33888,1,0,0,0,0,0,0,113.27,51.65,31.09,-1.34,-8.11,-0.22,101139,-17.96,26.00,1,2,43,0,0
33936,1,0,0,0,0,0,0,113.06,52.76,30.26,1.05,-10.92,-0.15,101130,-17.79,26.00,5,0,57,0,0
33984,1,0,0,0,0,0,0,113.10,53.57,29.61,5.53,-9.81,5.99,101129,-17.79,26.00,3,0,27,0,0
34032,1,0,0,0,0,0,0,113.48,53.28,30.03,0.16,-1.52,-0.06,101138,-17.96,26.00,6,0,31,0,0
34096,1,0,0,0,0,0,0,114.19,52.92,30.56,-0.95,7.47,-6.67,101133,-18.04,26.00,3,0,31,0,0
34144,1,0,0,0,0,0,0,115.34,52.92,31.18,4.57,6.32,-2.18,101138,-17.79,26.00,6,0,24,0,0
34193,1,0,0,0,0,0,0,116.26,51.92,32.49,14.78,2.81,7.57,101133,-17.79,26.00,1,0,9,0,0
34240,1,0,0,0,0,0,0,116.88,51.27,33.25,27.13,-0.25,8.94,101133,-17.21,26.00,2,2,27,0,0
34288,1,0,0,0,0,0,0,116.66,50.63,33.60,16.99,-12.68,17.56,101135,-17.79,26.00,2,2,27,0,0
34336,1,0,0,0,0,0,0,115.39,49.51,33.57,-0.57,-16.76,11.27,101130,-16.96,26.00,6,1,48,0,0
34384,1,0,0,0,0,0,0,116.06,49.09,34.08,11.60,-16.09,3.57,101130,-17.21,26.00,5,1,44,0,0
34432,1,0,0,0,0,0,0,116.89,49.26,34.79,30.53,-13.01,0.17,101128,-17.21,26.00,11,0,36,0,0
34496,1,0,0,0,0,0,0,116.91,49.63,35.24,29.22,-17.72,-1.47,101133,-18.46,26.00,10,1,30,0,0
34544,1,0,0,0,0,0,0,115.37,49.28,35.70,12.58,-18.56,-1.87,101132,-17.96,26.00,8,2,29,0,0
34592,1,0,0,0,0,0,0,113.50,48.61,36.81,7.63,-5.29,0.70,101128,-17.96,26.00,10,0,40,0,0
34640,1,0,0,0,0,0,0,110.53,48.26,37.35,6.91,-2.88,1.17,101130,-18.21,26.00,3,0,48,0,0
34688,1,0,0,0,0,0,0,106.33,47.87,37.68,5.48,3.31,1.82,101133,-17.45,26.00,8,2,32,0,0
34737,1,0,0,0,0,0,0,101.11,47.26,38.05,9.69,0.50,-8.17,101126,-17.45,26.00,10,0,40,0,0
34783,1,0,0,0,0,0,0,92.32,45.73,39.18,10.16,-4.17,-16.32,101128,-17.54,26.00,4,4,34,0,0
34848,1,0,0,0,0,0,0,78.74,43.80,40.94,12.85,-4.11,-8.40,101136,-17.79,26.00,4,0,116,0,0
34896,1,0,0,0,0,0,0,61.68,41.91,42.81,9.24,-7.97,1.61,101141,-18.04,26.00,3,0,81,0,0
34943,1,0,0,0,0,0,0,46.70,40.57,44.34,19.79,-5.29,14.10,101125,-17.79,26.00,10,2,88,0,0
34992,1,0,0,0,0,0,0,32.03,40.21,45.52,32.56,6.24,20.29,101132,-18.04,26.00,6,0,39,0,0
35041,1,0,0,0,0,0,0,32.11,39.81,44.80,12.74,-7.08,12.08,101133,-17.37,26.00,4,0,57,0,0
35088,1,0,0,0,0,0,0,35.42,39.58,43.26,-2.36,-24.80,-3.45,101130,-16.96,26.00,8,1,89,0,0
35136,1,0,0,0,0,0,0,12.34,39.49,44.46,12.06,-29.32,28.85,101132,-18.29,26.00,9,0,42,0,0
35184,1,0,0,0,0,0,0,-5.60,41.11,44.47,12.82,-7.25,26.63,101125,-18.04,26.00,3,4,46,0,0
35248,1,0,0,0,0,0,0,-16.32,42.64,43.55,10.79,0.77,14.40,101133,-17.62,26.00,8,0,54,0,0
35296,1,0,0,0,0,0,0,-23.43,43.58,42.87,0.13,0.61,12.38,101135,-17.54,26.00,1,0,42,0,0
35344,1,0,0,0,0,0,0,-26.16,44.41,41.95,-6.90,-2.77,13.73,101130,-17.54,26.00,4,0,55,0,0
35391,1,0,0,0,0,0,0,-28.70,45.40,41.16,-0.30,-7.81,14.13,101130,-17.21,26.00,5,0,42,0,0
35439,1,0,0,0,0,0,0,-32.91,46.28,41.03,3.74,-6.28,17.66,101129,-17.21,26.00,2,0,40,0,0
35488,1,0,0,0,0,0,0,-35.49,46.50,41.42,0.79,-6.55,17.09,101130,-17.96,26.00,8,0,43,0,0
35536,1,0,0,0,0,0,0,-36.72,46.18,42.14,-0.87,-7.39,15.90,101133,-17.79,26.00,9,0,44,0,0
35584,1,0,0,0,0,0,0,-38.00,45.88,42.85,1.77,-5.60,15.78,101139,-18.04,26.00,7,0,46,0,0
35648,1,0,0,0,0,0,0,-38.70,45.37,43.62,8.41,-4.60,15.13,101133,-18.29,26.00,9,0,42,0,0
35695,1,0,0,0,0,0,0,-38.44,44.36,44.66,12.96,-1.21,24.65,101123,-17.37,26.00,3,4,35,0,0
35744,1,0,0,0,0,0,0,-36.05,42.79,45.87,8.93,-0.87,27.23,101128,-17.71,26.00,7,4,31,0,0
35792,1,0,0,0,0,0,0,-33.48,41.64,46.45,11.05,-3.33,18.29,101126,-17.37,26.00,8,1,23,0,0
35839,1,0,0,0,0,0,0,-32.50,41.33,46.48,15.19,-2.61,16.00,101126,-17.21,26.00,12,0,24,0,0
35888,1,0,0,0,0,0,0,-32.28,41.42,46.26,16.19,-5.17,16.97,101122,-17.21,26.00,5,3,22,0,0
35935,1,0,0,0,0,0,0,-32.00,41.40,46.18,17.02,-10.79,10.46,101126,-17.12,26.00,7,0,32,0,0
36000,1,0,0,0,0,0,0,-32.37,40.75,47.07,13.42,-13.12,4.23,101123,-17.54,26.00,12,0,24,0,0
36048,1,0,0,0,0,0,0,-33.11,40.08,48.02,7.61,-9.95,5.70,101128,-17.54,26.00,11,0,26,0,0
36095,1,0,0,0,0,0,0,-34.39,40.43,47.92,5.00,-1.97,16.19,101128,-16.96,26.00,11,0,27,0,0
36145,0,0,0,0,0,0,0,-34.70,41.55,46.56,0.59,0.51,20.79,101128,-17.21,26.00,12,0,30,0,0
36192,0,0,0,0,0,0,0,-34.33,43.25,44.35,-2.10,-1.66,3.38,101123,-16.96,26.00,6,0,30,1,0
36239,0,0,0,0,0,0,0,-36.83,44.81,42.92,2.98,0.06,6.68,101132,-17.37,26.00,7,0,32,1,0
36287,0,0,0,0,0,0,0,-40.67,46.93,41.23,15.30,10.26,9.44,101125,-17.54,26.00,0,0,34,1,0
